{
  "qualifications": {
    "1": "Digital production, design and development",
    "2": "Design, surveying and planning",
    "3": "Education"
  },
  "providers": [
    {
      "id": 1,
      "name": "Bishop Burton College",
      "locations": [
        {
          "fullAddress": "York Road, Bishop Burton, Beverley",
          "postcode": "HU17 8QG",
          "latitude": 53.848058,
          "longitude": -0.503445,
          "qualification2020": [
            3
          ],
          "website": "https://www.bishopburton.ac.uk/"
        }
      ]
    },
    {
      "id": 2,
      "name": "York College",
      "locations": [
        {
          "fullAddress": "Sim Balk Lane, York",
          "postcode": "YO23 2BB",
          "latitude": 53.929705,
          "longitude": -1.113609,
          "qualification2020": [
            1,
            2,
            3
          ],
          "website": "https://www.yorkcollege.ac.uk"
        }
      ]
    },
    {
      "id": 3,
      "name": "Walsall College",
      "locations": [
        {
          "fullAddress": "Wisemore Campus, Littleton Street West, Walsall",
          "postcode": "WS2 8ES",
          "latitude": 52.589449,
          "longitude": -1.982554,
          "qualification2020": [
            1,
            3
          ],
          "website": "https://www.walsallcollege.ac.uk"
        },
        {
          "fullAddress": "Long Acre St, Walsall",
          "postcode": "WS2 8HX",
          "latitude": 52.591122,
          "longitude": -1.990067,
          "qualification2020": [
            2
          ],
          "website": "https://www.walsallcollege.ac.uk"
        }
      ]
    },
    {
      "id": 4,
      "name": "City College Norwich",
      "locations": [
        {
          "fullAddress": "5 Ipswich Road, Norwich, Norfolk",
          "postcode": "NR2 2LJ",
          "latitude": 52.618144,
          "longitude": 1.286325,
          "qualification2020": [
            1,
            2,
            3
          ],
          "website": "https://www.ccn.ac.uk/courses/course-types/t-levels/"
        }
      ]
    },
    {
      "id": 5,
      "name": "Paston College",
      "locations": [
        {
          "fullAddress": "Grammar School Rd, North Walsham",
          "postcode": "NR28 9JL",
          "latitude": 52.819813,
          "longitude": 1.38584,
          "qualification2020": [
            1,
            3
          ],
          "website": "https://www.ccn.ac.uk/courses/course-types/t-levels/"
        }
      ]
    },
    {
      "id": 6,
      "name": "New College Durham",
      "locations": [
        {
          "fullAddress": "Framwellgate Moor Campus, Durham",
          "postcode": "DH1 5ES",
          "latitude": 54.795913,
          "longitude": -1.594398,
          "qualification2020": [
            1,
            2,
            3
          ],
          "website": "https://www.newcollegedurham.ac.uk"
        }
      ]
    },
    {
      "id": 7,
      "name": "Access Creative College (Access to Music)",
      "locations": [
        {
          "fullAddress": "24-26 Hulme Street",
          "postcode": "M1 5BW",
          "latitude": 53.472598,
          "longitude": -2.242874,
          "qualification2020": [
            1
          ],
          "website": "https://www.accesscreative.ac.uk"
        }
      ]
    },
    {
      "id": 8,
      "name": "Cranford Community College",
      "locations": [
        {
          "fullAddress": "High Street, Cranford",
          "postcode": "TW5 9PD",
          "latitude": 51.487616,
          "longitude": -0.406527,
          "qualification2020": [
            1,
            3
          ],
          "website": "http://www.cranford.hounslow.sch.uk"
        }
      ]
    },
    {
      "id": 9,
      "name": "Grimsby Institute",
      "locations": [
        {
          "fullAddress": "Nuns Corner, Grimsby, NE Lincolnshire",
          "postcode": "DN34 5BQ",
          "latitude": 53.553451,
          "longitude": -0.093352,
          "qualification2020": [
            1,
            3
          ],
          "website": "https://www.grimsby.ac.uk"
        }
      ]
    },
    {
      "id": 10,
      "name": "Scarborough TEC",
      "locations": [
        {
          "fullAddress": "Filey Rd, Scarborough",
          "postcode": "YO11 3AZ",
          "latitude": 54.262655,
          "longitude": -0.394603,
          "qualification2020": [
            3
          ],
          "website": "https://www.scarboroughTEC.ac.uk"
        }
      ]
    },
    {
      "id": 11,
      "name": "Cirencester College",
      "locations": [
        {
          "fullAddress": "Fosse Way Campus, Stroud Road, Cirencester",
          "postcode": "GL7 1XA",
          "latitude": 51.71269,
          "longitude": -1.986058,
          "qualification2020": [
            1,
            2,
            3
          ],
          "website": "https://www.cirencester.ac.uk"
        }
      ]
    },
    {
      "id": 12,
      "name": "Nelson and Colne College",
      "locations": [
        {
          "fullAddress": "Scotland Road, Nelson",
          "postcode": "BB9 7YT",
          "latitude": 53.84442,
          "longitude": -2.221148,
          "qualification2020": [
            1,
            3
          ],
          "website": "https://www.nelson.ac.uk/16-18/t-levels/"
        }
      ]
    },
    {
      "id": 13,
      "name": "Accrington and Rossendale College",
      "locations": [
        {
          "fullAddress": "Broad Oak Rd, Accrington",
          "postcode": "BB5 2AS",
          "latitude": 53.749797,
          "longitude": -2.357479,
          "qualification2020": [
            3
          ],
          "website": "https://www.accross.ac.uk/school-leavers/t-levels/"
        }
      ]
    },
    {
      "id": 14,
      "name": "The College of Richard Collyer",
      "locations": [
        {
          "fullAddress": "82 Hurst Rd, Horsham",
          "postcode": "RH12 2EJ",
          "latitude": 51.071001,
          "longitude": -0.324301,
          "qualification2020": [
            1,
            3
          ],
          "website": "https://collyers.ac.uk"
        }
      ]
    },
    {
      "id": 15,
      "name": "Scarborough Sixth Form College",
      "locations": [
        {
          "fullAddress": "Sandybed Lane, Scarborough",
          "postcode": "YO12 5LF",
          "latitude": 54.275292,
          "longitude": -0.430757,
          "qualification2020": [
            3
          ],
          "website": "https://www.s6f.org.uk"
        }
      ]
    },
    {
      "id": 16,
      "name": "La Retraite RC Girls School",
      "locations": [
        {
          "fullAddress": "1-4 Atkins Road, Clapham Park, London",
          "postcode": "SW12 0AB",
          "latitude": 51.447913,
          "longitude": -0.14478,
          "qualification2020": [
            1,
            3
          ],
          "website": "https://www.laretraite.lambeth.sch.uk/"
        }
      ]
    },
    {
      "id": 17,
      "name": "Gateshead College",
      "locations": [
        {
          "fullAddress": "Quarryfield Road, Baltic Business Quarter, Gateshead",
          "postcode": "NE8 3BE",
          "latitude": 54.96561,
          "longitude": -1.597171,
          "qualification2020": [
            1,
            3
          ],
          "website": "http://www.gateshead.ac.uk"
        }
      ]
    },
    {
      "id": 18,
      "name": "Suffolk New College",
      "locations": [
        {
          "fullAddress": "Rope Walk, Ipswich",
          "postcode": "IP4 1LT",
          "latitude": 52.054871,
          "longitude": 1.165925,
          "qualification2020": [
            2
          ],
          "website": "https://www.suffolk.ac.uk/courses/t-levels"
        }
      ]
    },
    {
      "id": 19,
      "name": "Derby College",
      "locations": [
        {
          "fullAddress": "The Joseph Wright Centre, Cathederal Road, Derby",
          "postcode": "DE1 3PA",
          "latitude": 52.925491,
          "longitude": -1.479424,
          "qualification2020": [
            1
          ],
          "website": "https://www.derby-college.ac.uk"
        },
        {
          "fullAddress": "The Roundhouse, Roundhouse Road, Derby",
          "postcode": "DE24 8JE",
          "latitude": 52.916014,
          "longitude": -1.459,
          "qualification2020": [
            2,
            3
          ],
          "website": "https://www.derby-college.ac.uk"
        }
      ]
    },
    {
      "id": 20,
      "name": "Truro and Penwith College",
      "locations": [
        {
          "fullAddress": "College Road, Truro",
          "postcode": "TR1 3XX",
          "latitude": 50.262794,
          "longitude": -5.100783,
          "qualification2020": [
            1,
            2,
            3
          ],
          "website": "https://www.truro-penwith.ac.uk"
        }
      ]
    },
    {
      "id": 21,
      "name": "Crawley College",
      "locations": [
        {
          "fullAddress": "College Road, Crawley",
          "postcode": "RH10 1NR",
          "latitude": 51.116206,
          "longitude": -0.181516,
          "qualification2020": [
            1
          ],
          "website": "https://www.crawley.ac.uk/study-courses/t-levels"
        }
      ]
    },
    {
      "id": 22,
      "name": "Chichester College",
      "locations": [
        {
          "fullAddress": "Westgate Fields, Chichester",
          "postcode": "PO19 1SB",
          "latitude": 50.83492,
          "longitude": -0.787766,
          "qualification2020": [
            2,
            3
          ],
          "website": "https://www.chichester.ac.uk"
        }
      ]
    },
    {
      "id": 23,
      "name": "The Leigh UTC",
      "locations": [
        {
          "fullAddress": "Brunel Way, Dartford, Kent",
          "postcode": "DA1 5TF",
          "latitude": 51.459986,
          "longitude": 0.223992,
          "qualification2020": [
            1
          ],
          "website": "http://www.theleighutc.org.uk"
        }
      ]
    },
    {
      "id": 24,
      "name": "Lordswood Girls' School & Sixth Form Centre",
      "locations": [
        {
          "fullAddress": "Knightlow Rd, Birmingham",
          "postcode": "B17 8QB",
          "latitude": 52.468755,
          "longitude": -1.963214,
          "qualification2020": [
            3
          ],
          "website": "http://www.lordswoodgirls.co.uk/"
        }
      ]
    },
    {
      "id": 25,
      "name": "Fareham College",
      "locations": [
        {
          "fullAddress": "Bishopsfield Road, Fareham, Hants",
          "postcode": "PO14 1NH",
          "latitude": 50.851085,
          "longitude": -1.199216,
          "qualification2020": [
            1,
            3
          ],
          "website": "https://www.fareham.ac.uk/t-levels/"
        }
      ]
    },
    {
      "id": 26,
      "name": "Havant and South Downs College",
      "locations": [
        {
          "fullAddress": "South Downs Campus, College Road, Widley, Waterlooville",
          "postcode": "PO7 8AA",
          "latitude": 50.861598,
          "longitude": -1.021127,
          "qualification2020": [
            1,
            2,
            3
          ],
          "website": "https://www.hsdc.ac.uk/"
        },
        {
          "fullAddress": "Alton College, Old Odiham Rd, Alton",
          "postcode": "GU34 2LX",
          "latitude": 51.156172,
          "longitude": -0.975771,
          "qualification2020": [
            3
          ],
          "website": "https://www.hsdc.ac.uk/"
        }
      ]
    },
    {
      "id": 27,
      "name": "Blackpool and the Fylde College",
      "locations": [
        {
          "fullAddress": "Bispham Campus, Blackpool",
          "postcode": "FY2 0HB",
          "latitude": 53.859387,
          "longitude": -3.026295,
          "qualification2020": [
            1,
            2,
            3
          ],
          "website": "https://www.blackpool.ac.uk/t-levels"
        }
      ]
    },
    {
      "id": 28,
      "name": "Dudley College of Technology",
      "locations": [
        {
          "fullAddress": "The Art and Design Centre, Venture Way, Brierley Hill, Dudley",
          "postcode": "DY5 1RG",
          "latitude": 52.47992,
          "longitude": -2.119236,
          "qualification2020": [
            1
          ],
          "website": "https://www.dudleycol.ac.uk"
        },
        {
          "fullAddress": "The Broadway, Dudley",
          "postcode": "DY1 4AS",
          "latitude": 52.514257,
          "longitude": -2.082623,
          "qualification2020": [
            2,
            3
          ],
          "website": "https://www.dudleycol.ac.uk"
        }
      ]
    },
    {
      "id": 29,
      "name": "Painsley Catholic College",
      "locations": [
        {
          "fullAddress": "Attlee Road, Cheadle",
          "postcode": "ST10 1LL",
          "latitude": 52.980124,
          "longitude": -1.988699,
          "qualification2020": [
            1
          ],
          "website": "http://www.painsley.co.uk/sixth-form/t-levels/digital-t-level-starting-september-2020/"
        }
      ]
    },
    {
      "id": 30,
      "name": "Strode College",
      "locations": [
        {
          "fullAddress": "Church Road, Street, Somerset",
          "postcode": "BA16 0AB",
          "latitude": 51.130495,
          "longitude": -2.734039,
          "qualification2020": [
            1,
            3
          ],
          "website": "http://www.strode-college.ac.uk/tlevels"
        }
      ]
    },
    {
      "id": 31,
      "name": "Salesian School",
      "locations": [
        {
          "fullAddress": "Highfield Road, Chertsey, Surrey",
          "postcode": "KT16 8BX",
          "latitude": 51.383685,
          "longitude": -0.502184,
          "qualification2020": [
            1,
            3
          ],
          "website": "https://salesian.surrey.sch.uk/t-levels/"
        }
      ]
    },
    {
      "id": 32,
      "name": "Bridgwater and Taunton College",
      "locations": [
        {
          "fullAddress": "Taunton Campus, Wellington Road, Taunton, Somerset",
          "postcode": "TA1 5AX",
          "latitude": 51.016061,
          "longitude": -3.118879,
          "qualification2020": [
            1,
            2,
            3
          ],
          "website": "https://www.btc.ac.uk/find-a-course/school-leavers/t-levels/"
        }
      ]
    },
    {
      "id": 33,
      "name": "Sandwell Academy",
      "locations": [
        {
          "fullAddress": "Halfords Lane, West Bromwich",
          "postcode": "B71 4LG",
          "latitude": 52.50705,
          "longitude": -1.965917,
          "qualification2020": [
            1
          ],
          "website": "https://www.sandwellacademy.com/page/home.aspx"
        }
      ]
    },
    {
      "id": 34,
      "name": "University College Birmingham",
      "locations": [
        {
          "fullAddress": "Summer Row, Birmingham",
          "postcode": "B3 1JB",
          "latitude": 52.48184,
          "longitude": -1.905939,
          "qualification2020": [
            3
          ],
          "website": "https://www.ucb.ac.uk/home.aspx"
        }
      ]
    },
    {
      "id": 35,
      "name": "Thorpe St Andrew School and Sixth Form",
      "locations": [
        {
          "fullAddress": "Laundry Lane, Thorpe St Andrew, Norwich",
          "postcode": "NR7 0XS",
          "latitude": 52.636136,
          "longitude": 1.355735,
          "qualification2020": [
            1,
            3
          ],
          "website": "https://thorpestandrewschool.org.uk/sixth-form/courses-on-offer/"
        }
      ]
    },
    {
      "id": 36,
      "name": "Durham Sixth Form Centre",
      "locations": [
        {
          "fullAddress": "Providence Row, The Sands, Durham",
          "postcode": "DH1 1SG",
          "latitude": 54.780132,
          "longitude": -1.573146,
          "qualification2020": [
            1
          ],
          "website": "http://www.durhamsixthformcentre.org.uk"
        }
      ]
    },
    {
      "id": 37,
      "name": "Runshaw College",
      "locations": [
        {
          "fullAddress": "Langdale Road, Leyland",
          "postcode": "PR25 3DQ",
          "latitude": 53.680997,
          "longitude": -2.689595,
          "qualification2020": [
            1
          ],
          "website": "https://www.runshaw.ac.uk"
        }
      ]
    },
    {
      "id": 38,
      "name": "HCUC (Harrow College & Uxbridge College)",
      "locations": [
        {
          "fullAddress": "Park Road, Uxbridge",
          "postcode": "UB8 1NQ",
          "latitude": 51.549947,
          "longitude": -0.469124,
          "qualification2020": [
            1
          ],
          "website": "https://www.uxbridgecollege.ac.uk/tlevels"
        },
        {
          "fullAddress": "College Way, Coldharbour Lane, Hayes",
          "postcode": "UB3 3BB",
          "latitude": 51.515631,
          "longitude": -0.412179,
          "qualification2020": [
            3
          ],
          "website": "https://www.uxbridgecollege.ac.uk/tlevels"
        }
      ]
    },
    {
      "id": 39,
      "name": "St Thomas More School",
      "locations": [
        {
          "fullAddress": "Croftdale Road, Blaydon, Tyne & Wear",
          "postcode": "NE21 4BQ",
          "latitude": 54.9612,
          "longitude": -1.722608,
          "qualification2020": [
            1,
            3
          ],
          "website": "https://www.stthomasmore.org.uk/t-levels"
        }
      ]
    },
    {
      "id": 40,
      "name": "Develop Norwich",
      "locations": [
        {
          "fullAddress": "4 Barton Way, City Office Park, Carrow Road, Norwich",
          "postcode": "NR1 1DL",
          "latitude": 52.62367,
          "longitude": 1.315558,
          "qualification2020": [
            1
          ],
          "website": "http://www.developebp.co.uk/"
        }
      ]
    },
    {
      "id": 41,
      "name": "Exeter College",
      "locations": [
        {
          "fullAddress": "Victoria House, 33-36 Queen Street, Exeter, Devon",
          "postcode": "EX4 3SR",
          "latitude": 50.726756,
          "longitude": -3.535014,
          "qualification2020": [
            1
          ],
          "website": "https://www.exe-coll.ac.uk/"
        },
        {
          "fullAddress": "Devon and Exeter Construction Training Centre, Falcon House, Falcon Road, Exeter",
          "postcode": "EX2 7LB",
          "latitude": 50.716462,
          "longitude": -3.471881,
          "qualification2020": [
            2
          ],
          "website": "https://www.exe-coll.ac.uk/"
        },
        {
          "fullAddress": "Hele Road, Exeter, Devon",
          "postcode": "EX4 4JS",
          "latitude": 50.728223,
          "longitude": -3.538392,
          "qualification2020": [
            3
          ],
          "website": "https://www.exe-coll.ac.uk/"
        }
      ]
    },
    {
      "id": 42,
      "name": "Peter Symonds College",
      "locations": [
        {
          "fullAddress": "Owens Road, Winchester",
          "postcode": "SO22 6RX",
          "latitude": 51.070701,
          "longitude": -1.321775,
          "qualification2020": [
            3
          ],
          "website": "https://www.psc.ac.uk/"
        },
        {
          "fullAddress": "Stoney Lane, Weeke, Winchester,",
          "postcode": "SO22 6DR",
          "latitude": 51.075384,
          "longitude": -1.333897,
          "qualification2020": [
            3
          ],
          "website": "https://www.psc.ac.uk/"
        }
      ]
    },
    {
      "id": 43,
      "name": "Barnsley College",
      "locations": [
        {
          "fullAddress": "Church St, Barnsley",
          "postcode": "S70 2AX",
          "latitude": 53.556624,
          "longitude": -1.482572,
          "qualification2020": [
            1,
            2,
            3
          ],
          "website": "https://www.barnsley.ac.uk/courses/all-about-t-levels/"
        }
      ]
    },
    {
      "id": 44,
      "name": "City of Stoke-on-Trent Sixth Form College",
      "locations": [
        {
          "fullAddress": "Leek Road, Stoke-on-Trent",
          "postcode": "ST4 2RU",
          "latitude": 53.006787,
          "longitude": -2.177957,
          "qualification2020": [
            1
          ],
          "website": "https://www.stokesfc.ac.uk/"
        }
      ]
    },
    {
      "id": 45,
      "name": "Farnborough College of Technology",
      "locations": [
        {
          "fullAddress": "Boundary Road,Â Farnborough, Hampshire",
          "postcode": "GU14 6SB",
          "latitude": 51.285554,
          "longitude": -0.751747,
          "qualification2020": [
            1,
            3
          ],
          "website": "https://www.farn-ct.ac.uk/school-leavers/introducing-t-levels/"
        }
      ]
    },
    {
      "id": 46,
      "name": "Priestley College",
      "locations": [
        {
          "fullAddress": "Loushers Lane, Warrington",
          "postcode": "WA4 6RD",
          "latitude": 53.379485,
          "longitude": -2.583436,
          "qualification2020": [
            1,
            3
          ],
          "website": "https://www.priestley.ac.uk/t-levels-at-priestley/"
        }
      ]
    },
    {
      "id": 47,
      "name": "Shipley College",
      "locations": [
        {
          "fullAddress": "Salt Building, Victoria Rd, Shipley",
          "postcode": "BD18 3lQ",
          "latitude": 53.836819,
          "longitude": -1.790215,
          "qualification2020": [
            1,
            3
          ],
          "website": "https://www.shipley.ac.uk/school-leavers/t-levels"
        }
      ]
    },
    {
      "id": 48,
      "name": "Ursuline High School",
      "locations": [
        {
          "fullAddress": "Crescent Road, Wimbledon, London",
          "postcode": "SW20 8HA",
          "latitude": 51.41406,
          "longitude": -0.222757,
          "qualification2020": [
            1
          ],
          "website": "https://www.ursulinehigh.merton.sch.uk/sixth-form/curriculum/t-levels-2/"
        }
      ]
    },
    {
      "id": 49,
      "name": "Cardinal Newman College",
      "locations": [
        {
          "fullAddress": "Lark Hill Road, Preston",
          "postcode": "PR1 4HD",
          "latitude": 53.757096,
          "longitude": -2.688869,
          "qualification2020": [
            1,
            3
          ],
          "website": "https://www.cardinalnewman.ac.uk/school-leavers/t-levels/"
        }
      ]
    },
    {
      "id": 50,
      "name": "Notre Dame Catholic Sixth Form College",
      "locations": [
        {
          "fullAddress": "St. Mark's Avenue, Leeds",
          "postcode": "LS2 9BL",
          "latitude": 53.81076,
          "longitude": -1.552662,
          "qualification2020": [
            1
          ],
          "website": "https://www.notredamecoll.ac.uk"
        }
      ]
    },
    {
      "id": 51,
      "name": "Weston College",
      "locations": [
        {
          "fullAddress": "South West Skills Campus, Locking Road, Weston-Super-Mare",
          "postcode": "BS22 8NL",
          "latitude": 51.34938,
          "longitude": -2.948269,
          "qualification2020": [
            1
          ],
          "website": "https://www.weston.ac.uk/Tlevels"
        }
      ]
    },
    {
      "id": 52,
      "name": "Oldham Sixth Form College",
      "locations": [
        {
          "fullAddress": "Union Street West, Oldham",
          "postcode": "OL8 1XU",
          "latitude": 53.538654,
          "longitude": -2.11865,
          "qualification2020": [
            1
          ],
          "website": "http://www.osfc.ac.uk/"
        }
      ]
    },
    {
      "id": 53,
      "name": "East Sussex College",
      "locations": [
        {
          "fullAddress": "Cross Levels Way, Eastbourne",
          "postcode": "BN21 2UF",
          "latitude": 50.788909,
          "longitude": 0.272124,
          "qualification2020": [
            1,
            2,
            3
          ],
          "website": "http://www.escg.ac.uk/"
        },
        {
          "fullAddress": "1 Mountfield Road, Lewes",
          "postcode": "BN7 2XH",
          "latitude": 50.870098,
          "longitude": 0.015572,
          "qualification2020": [
            3
          ],
          "website": "http://www.escg.ac.uk/"
        },
        {
          "fullAddress": "Station Approach, Hastings",
          "postcode": "TN34 1BA",
          "latitude": 50.857944,
          "longitude": 0.578137,
          "qualification2020": [
            1,
            2,
            3
          ],
          "website": "http://www.escg.ac.uk/"
        }
      ]
    },
    {
      "id": 54,
      "name": "Walsall Studio School",
      "locations": [
        {
          "fullAddress": "14a Lower Hall Lane, Walsall, West Midlands",
          "postcode": "WS1 1RL",
          "latitude": 52.582434,
          "longitude": -1.982153,
          "qualification2020": [
            1
          ],
          "website": "https://walsallstudio.school/"
        }
      ]
    }
  ]
}
