{
  "qualifications": {
    "1": "Digital production, design and development",
    "2": "Design, surveying and planning",
    "3": "Education"
  },
  "providers": [
    {
      "id": 1,
      "name": "York College ",
      "website": "yorkcollege.ac.uk",
      "locations": [
        {
          "fullAddress": "York College, Sim Balk Lane, York",
          "postcode": "YO23 2BB",
          "admissionsPhone": "01904770100",
          "latitude": 53.929705,
          "longitude": -1.113609,
          "qualification2020": [
            1,
            2
          ]
        },
        {
          "fullAddress": "York College, Sim Balk Lane, York",
          "postcode": "YO23 2BB",
          "admissionsPhone": "10904770100",
          "latitude": 53.929705,
          "longitude": -1.113609,
          "qualification2020": [
            3
          ]
        }
      ]
    },
    {
      "id": 2,
      "name": "Walsall College",
      "website": "www.walsallcollege.ac.uk",
      "locations": [
        {
          "fullAddress": "Wisemore Campus, Littleton Street West, Walsall",
          "postcode": "WS2 8ES",
          "admissionsPhone": "01922 657000",
          "latitude": 52.589449,
          "longitude": -1.982554,
          "qualification2020": [
            1
          ]
        },
        {
          "fullAddress": "Walsall College, Long Acre St, Walsall ",
          "postcode": "WS2 8HX",
          "admissionsPhone": "01922 657000",
          "latitude": 52.591122,
          "longitude": -1.990067,
          "qualification2020": [
            2
          ]
        },
        {
          "fullAddress": "Walsall College, Wisemore Campus, Littleton Street West, Walsall",
          "postcode": "WS2 8ES",
          "admissionsPhone": "01922 657000",
          "latitude": 52.589449,
          "longitude": -1.982554,
          "qualification2020": [
            3
          ]
        }
      ]
    },
    {
      "id": 3,
      "name": "City College Norwich of Further and Higher Education",
      "website": "https://www.ccn.ac.uk",
      "locations": [
        {
          "fullAddress": "City College Norwich, 5 Ipswich Road, Norwich, Norfolk",
          "postcode": "NR2 2LJ",
          "admissionsPhone": "01603 773311",
          "latitude": 52.618144,
          "longitude": 1.286325,
          "qualification2020": [
            1,
            2,
            3
          ]
        },
        {
          "fullAddress": "Paston College, Grammar School Road, North Walsham",
          "postcode": "NR28 9JL",
          "admissionsPhone": "01692 402334",
          "latitude": 52.819813,
          "longitude": 1.38584,
          "qualification2020": [
            1,
            3
          ]
        }
      ]
    },
    {
      "id": 4,
      "name": "new college durham ",
      "website": "www.newcollegedurham.ac.uk",
      "locations": [
        {
          "fullAddress": "framwellgate moor campus ",
          "postcode": "dh1 5es",
          "admissionsPhone": "0191 3754000",
          "latitude": 54.795913,
          "longitude": -1.594398,
          "qualification2020": [
            1
          ]
        },
        {
          "fullAddress": "framwellgate moor campus ",
          "postcode": "DH1 5ES",
          "admissionsPhone": "0191 3754000",
          "latitude": 54.795913,
          "longitude": -1.594398,
          "qualification2020": [
            2,
            3
          ]
        }
      ]
    },
    {
      "id": 5,
      "name": "Access Creative College (Access to Music)",
      "website": "https://www.accesscreative.ac.uk",
      "locations": [
        {
          "fullAddress": "24-26 Hulme Street",
          "postcode": "M1 5BW",
          "admissionsPhone": "0800281842",
          "latitude": 53.472598,
          "longitude": -2.242874,
          "qualification2020": [
            1
          ]
        }
      ]
    },
    {
      "id": 6,
      "name": "Cranford Community College",
      "website": "www.cranford.hounslow.sch.uk",
      "locations": [
        {
          "fullAddress": "Cranford Community College, High Street, Cranford",
          "postcode": "TW5 9PD",
          "admissionsPhone": "020 88972001",
          "latitude": 51.487616,
          "longitude": -0.406527,
          "qualification2020": [
            1,
            3
          ]
        }
      ]
    },
    {
      "id": 7,
      "name": "Grimsby Institute of Further and Higher Education",
      "website": "www.grimsby.ac.uk   www.scarboroughTEC.ac.uk",
      "locations": [
        {
          "fullAddress": "Nuns Corner, Grimsby, NE Lincolnshire",
          "postcode": "DN345BQ",
          "admissionsPhone": "01472 311222 x5434",
          "latitude": 53.553451,
          "longitude": -0.093352,
          "qualification2020": [
            1,
            3
          ]
        },
        {
          "fullAddress": "Scarborough TEC, Filey Road, Scarborough, N Yorkshire",
          "postcode": "YO11 3AZ",
          "admissionsPhone": "01723 372105",
          "latitude": 54.262655,
          "longitude": -0.394603,
          "qualification2020": [
            3
          ]
        }
      ]
    },
    {
      "id": 8,
      "name": "Cirencester College",
      "website": "www.cirencester.ac.uk",
      "locations": [
        {
          "fullAddress": "Fosse Way Campus",
          "postcode": "GL71XA",
          "admissionsPhone": "01285 640994",
          "latitude": 51.71269,
          "longitude": -1.986058,
          "qualification2020": [
            1,
            3
          ]
        },
        {
          "fullAddress": "Fosse Way Campus",
          "postcode": "GL71XA",
          "admissionsPhone": "01285 640 994",
          "latitude": 51.71269,
          "longitude": -1.986058,
          "qualification2020": [
            2
          ]
        }
      ]
    },
    {
      "id": 9,
      "name": "Nelson and Colne College",
      "website": "www.nelson.ac.uk",
      "locations": [
        {
          "fullAddress": "Nelson and Colne College, Scotland Road, Nelson",
          "postcode": "BB9 7YT",
          "admissionsPhone": "01282 440200",
          "latitude": 53.84442,
          "longitude": -2.221148,
          "qualification2020": [
            1
          ]
        },
        {
          "fullAddress": "Nelson and Colne College, Scotland Road, Nelson",
          "postcode": "BB9 7YT",
          "admissionsPhone": "01282 440272",
          "latitude": 53.84442,
          "longitude": -2.221148,
          "qualification2020": [
            3
          ]
        },
        {
          "fullAddress": "Accrington and Rossendale College, Broad Oak Rd, Accrington",
          "postcode": "BB5 2AR",
          "admissionsPhone": "01282 440272",
          "latitude": 53.750521,
          "longitude": -2.35606,
          "qualification2020": [
            3
          ]
        }
      ]
    },
    {
      "id": 10,
      "name": "The College of Richard Collyer in Horsham",
      "website": "https://collyers.ac.uk",
      "locations": [
        {
          "fullAddress": "The College of Richard Collyer",
          "postcode": "RH12 2EJ",
          "admissionsPhone": "01403 210822",
          "latitude": 51.071001,
          "longitude": -0.324301,
          "qualification2020": [
            1,
            3
          ]
        }
      ]
    },
    {
      "id": 11,
      "name": "Scarborough Sixth Form College",
      "website": "www.s6f.org.uk",
      "locations": [
        {
          "fullAddress": "Sandybed Lane, Scarborough",
          "postcode": "YO12 5LF",
          "admissionsPhone": "01723 380722",
          "latitude": 54.275292,
          "longitude": -0.430757,
          "qualification2020": [
            1,
            3
          ]
        }
      ]
    },
    {
      "id": 12,
      "name": "La Retraite",
      "website": "https://www.laretraite.lambeth.sch.uk/",
      "locations": [
        {
          "fullAddress": "La Retraite RC Girls School",
          "postcode": "SW120AB",
          "admissionsPhone": "02086735644",
          "latitude": 51.447913,
          "longitude": -0.14478,
          "qualification2020": [
            1,
            3
          ]
        }
      ]
    },
    {
      "id": 13,
      "name": "Gateshead College",
      "website": "www.gateshead.ac.uk",
      "locations": [
        {
          "fullAddress": "Gateshead College Baltic Campus",
          "postcode": "NE8 3BE",
          "admissionsPhone": "0191 490 2246",
          "latitude": 54.96561,
          "longitude": -1.597171,
          "qualification2020": [
            1
          ]
        },
        {
          "fullAddress": "Gateshead College Baltic Campus",
          "postcode": "NE8 3BE",
          "admissionsPhone": "0191 4902246",
          "latitude": 54.96561,
          "longitude": -1.597171,
          "qualification2020": [
            3
          ]
        }
      ]
    },
    {
      "id": 14,
      "name": "Suffolk New College",
      "website": "https://www.suffolk.ac.uk",
      "locations": [
        {
          "fullAddress": "Suffolk New College, Ipswich Campus, Rope Walk, Ipswich, Suffolk",
          "postcode": "IP4 1LT",
          "admissionsPhone": "01473 382211",
          "latitude": 52.054871,
          "longitude": 1.165925,
          "qualification2020": [
            2
          ]
        }
      ]
    },
    {
      "id": 15,
      "name": "Derby College Group",
      "website": "derby-college.ac.uk",
      "locations": [
        {
          "fullAddress": "DCG, The Joseph Wright Centre, Cathederal Road, Derby.",
          "postcode": "DE1 3PA",
          "admissionsPhone": "0800 0280289",
          "latitude": 52.925491,
          "longitude": -1.479424,
          "qualification2020": [
            1
          ]
        },
        {
          "fullAddress": "DCG The Roundhouse, Roundhouse Road, Derby",
          "postcode": "DE24 8JE",
          "admissionsPhone": "0800 0280289",
          "latitude": 52.916014,
          "longitude": -1.459,
          "qualification2020": [
            2
          ]
        },
        {
          "fullAddress": "DCG, The Roundhouse, Roundhouse Road Derby",
          "postcode": "DE24 8JE",
          "admissionsPhone": "0800 0280289",
          "latitude": 52.916014,
          "longitude": -1.459,
          "qualification2020": [
            3
          ]
        }
      ]
    },
    {
      "id": 16,
      "name": "Truro and Penwith College",
      "website": "www.truro-penwith.ac.uk",
      "locations": [
        {
          "fullAddress": "Truro and penwith College. College Rd. Truro",
          "postcode": "TR13XX",
          "admissionsPhone": "01872265820",
          "latitude": 50.262794,
          "longitude": -5.100783,
          "qualification2020": [
            1
          ]
        },
        {
          "fullAddress": "Truor and penwith college. College Road. Truro",
          "postcode": "TR13XX",
          "admissionsPhone": "01872265820",
          "latitude": 50.262794,
          "longitude": -5.100783,
          "qualification2020": [
            2
          ]
        },
        {
          "fullAddress": "Truro College. College Rd. Truro",
          "postcode": "TR13XX",
          "admissionsPhone": "01872265820",
          "latitude": 50.262794,
          "longitude": -5.100783,
          "qualification2020": [
            3
          ]
        }
      ]
    },
    {
      "id": 17,
      "name": "Chichester College Group ",
      "website": "www.chichester.ac.uk and www.crawley.ac.uk",
      "locations": [
        {
          "fullAddress": "Crawley College",
          "postcode": "RH10 1NR",
          "admissionsPhone": "01293 44 22 13",
          "latitude": 51.116206,
          "longitude": -0.181516,
          "qualification2020": [
            1
          ]
        },
        {
          "fullAddress": "Chichester College",
          "postcode": "PO19 1SB",
          "admissionsPhone": "01243 786 321",
          "latitude": 50.83492,
          "longitude": -0.787766,
          "qualification2020": [
            2,
            3
          ]
        }
      ]
    },
    {
      "id": 18,
      "name": "The Leigh UTC",
      "website": "www.theleighutc.org.uk",
      "locations": [
        {
          "fullAddress": "The Leigh UTC, Brunel Way, Dartford, Kent",
          "postcode": "DA1 5TF",
          "admissionsPhone": "01322626600",
          "latitude": 51.459986,
          "longitude": 0.223992,
          "qualification2020": [
            1
          ]
        }
      ]
    },
    {
      "id": 19,
      "name": "Lordswood Girls' School & Sixth Form Centre",
      "website": "www.lordswoodgirls.co.uk",
      "locations": [
        {
          "fullAddress": "Lordswood Girls' School, Knightlow Road, Harborne, Birmingham",
          "postcode": "B17 8QB",
          "admissionsPhone": "0121 429 2838",
          "latitude": 52.468755,
          "longitude": -1.963214,
          "qualification2020": [
            3
          ]
        }
      ]
    },
    {
      "id": 20,
      "name": "Fareham College",
      "website": "www.fareham.ac.uk",
      "locations": [
        {
          "fullAddress": "Fareham College, Bishopsfield Road. Fareham. Hants",
          "postcode": "PO14 1NH",
          "admissionsPhone": "01329 815229",
          "latitude": 50.851085,
          "longitude": -1.199216,
          "qualification2020": [
            1
          ]
        },
        {
          "fullAddress": "Fareham Collefe, Bishopsfiled Raod, Fareham. Hants",
          "postcode": "PO14 1NH",
          "admissionsPhone": "01329 815229",
          "latitude": 50.851085,
          "longitude": -1.199216,
          "qualification2020": [
            3
          ]
        }
      ]
    },
    {
      "id": 21,
      "name": "Havant and South Downs College",
      "website": "www.hsdc.ac.uk",
      "locations": [
        {
          "fullAddress": "South Downs campus",
          "postcode": "PO7 8AA",
          "admissionsPhone": "02393 879999",
          "latitude": 50.861598,
          "longitude": -1.021127,
          "qualification2020": [
            1,
            2,
            3
          ]
        },
        {
          "fullAddress": "Alton campus",
          "postcode": "GU34 2LX",
          "admissionsPhone": "01420 592212",
          "latitude": 51.156172,
          "longitude": -0.975771,
          "qualification2020": [
            3
          ]
        }
      ]
    },
    {
      "id": 22,
      "name": "BLACKPOOL AND THE FYLDE COLLEGE",
      "website": "https://www.blackpool.ac.uk/",
      "locations": [
        {
          "fullAddress": "Blackpool and The Fylde College, Bispham Campus, Blackpool",
          "postcode": "FY2 0HB",
          "admissionsPhone": "01253 504343",
          "latitude": 53.859387,
          "longitude": -3.026295,
          "qualification2020": [
            1,
            2,
            3
          ]
        }
      ]
    },
    {
      "id": 23,
      "name": "Dudley College of Technology",
      "website": "dudleycol.ac.uk",
      "locations": [
        {
          "fullAddress": "The Art and Design Centre ",
          "postcode": "DY5 1RG",
          "admissionsPhone": "01384 363 333",
          "latitude": 52.47992,
          "longitude": -2.119236,
          "qualification2020": [
            1
          ]
        },
        {
          "fullAddress": "The Broadway",
          "postcode": "DY1 4AS",
          "admissionsPhone": "01384 363 333",
          "latitude": 52.514257,
          "longitude": -2.082623,
          "qualification2020": [
            2,
            3
          ]
        }
      ]
    },
    {
      "id": 24,
      "name": "Painsley Catholic College",
      "website": "www.painsley.co.uk",
      "locations": [
        {
          "fullAddress": "Painsley Catholic Sixth Form Collge Attlee Road Cheadle",
          "postcode": "ST10 1LL",
          "admissionsPhone": "01538714944",
          "latitude": 52.980124,
          "longitude": -1.988699,
          "qualification2020": [
            1
          ]
        }
      ]
    },
    {
      "id": 25,
      "name": "Strode College",
      "website": "www.strode-college.ac.uk",
      "locations": [
        {
          "fullAddress": "Strode College Church Road, Street, Somerset",
          "postcode": "BA16 0AB",
          "admissionsPhone": "Lucy MacNeary  01458 844453",
          "latitude": 51.130495,
          "longitude": -2.734039,
          "qualification2020": [
            1
          ]
        },
        {
          "fullAddress": "Strode College, Church Road, Street, Somerset",
          "postcode": "BA16 0AB",
          "admissionsPhone": "Lucy Mac Neary, 01458 844453",
          "latitude": 51.130495,
          "longitude": -2.734039,
          "qualification2020": [
            3
          ]
        }
      ]
    },
    {
      "id": 26,
      "name": "Salesian School",
      "website": "https://salesian.surrey.sch.uk/6th-form/",
      "locations": [
        {
          "fullAddress": "Salesian Sixth Form, Highfield Road, Chertsey, Surrey",
          "postcode": "KT16 8BX",
          "admissionsPhone": "01932 578681",
          "latitude": 51.383685,
          "longitude": -0.502184,
          "qualification2020": [
            1
          ]
        },
        {
          "fullAddress": "Salesian Sixth Form, Highfield Road, Chertsey, Surrey",
          "postcode": "KT16 8BX",
          "admissionsPhone": "01932 578861",
          "latitude": 51.383685,
          "longitude": -0.502184,
          "qualification2020": [
            3
          ]
        }
      ]
    },
    {
      "id": 27,
      "name": "Bridgwater and Taunton College ",
      "website": "www.btc.ac.uk",
      "locations": [
        {
          "fullAddress": "Taunton Campus, Wellington Road, Taunton, Somerset ",
          "postcode": "TA1 5AX",
          "admissionsPhone": "01278441234",
          "latitude": 51.016061,
          "longitude": -3.118879,
          "qualification2020": [
            1
          ]
        },
        {
          "fullAddress": "Taunton Campus. wellington Road, Taunton, Somerset ",
          "postcode": "TA1 5AX",
          "admissionsPhone": "01278441234",
          "latitude": 51.016061,
          "longitude": -3.118879,
          "qualification2020": [
            1
          ]
        },
        {
          "fullAddress": "Taunton Campus, Wellington Road, Taunton,Somerset",
          "postcode": "TA1 5AX",
          "admissionsPhone": "01278441234",
          "latitude": 51.016061,
          "longitude": -3.118879,
          "qualification2020": [
            2
          ]
        },
        {
          "fullAddress": "Taunton Campus, Wellington Road, Taunton, Somerset",
          "postcode": "TA1 5AX",
          "admissionsPhone": "0127441234",
          "latitude": 51.016061,
          "longitude": -3.118879,
          "qualification2020": [
            3
          ]
        }
      ]
    },
    {
      "id": 28,
      "name": "Sandwell Academy ",
      "website": "https://www.sandwellacademy.com/page/home.aspx",
      "locations": [
        {
          "fullAddress": "Sandwell Academy",
          "postcode": "B71 4LG",
          "admissionsPhone": "0121 525 1700",
          "latitude": 52.50705,
          "longitude": -1.965917,
          "qualification2020": [
            1
          ]
        }
      ]
    },
    {
      "id": 29,
      "name": "Univeristy College Birmingham",
      "website": "www.ucb.ac.uk",
      "locations": [
        {
          "fullAddress": "University College Birmingham",
          "postcode": "B31JB",
          "admissionsPhone": "Eileen Pryer 0121 604 1000 ext 2336",
          "latitude": 52.48184,
          "longitude": -1.905939,
          "qualification2020": [
            3
          ]
        }
      ]
    },
    {
      "id": 30,
      "name": "Thorpe St Andrew School and Sixth Form",
      "website": "https://thorpestandrewschool.org.uk/sixth-form/",
      "locations": [
        {
          "fullAddress": "Laundry Lane. Thorpe St Andrew. Norwich",
          "postcode": "NR7 0XS",
          "admissionsPhone": "01603 497767",
          "latitude": 52.636136,
          "longitude": 1.355735,
          "qualification2020": [
            1
          ]
        },
        {
          "fullAddress": "Laundry Lane, Thorpe St Andrew. Norwich",
          "postcode": "NR7 0XS",
          "admissionsPhone": "01603 497767",
          "latitude": 52.636136,
          "longitude": 1.355735,
          "qualification2020": [
            3
          ]
        }
      ]
    },
    {
      "id": 31,
      "name": "Durham Sixth Form Centre",
      "website": "http://www.durhamsixthformcentre.org.uk",
      "locations": [
        {
          "fullAddress": "Durham Sixth Form Centre, Providence Row, The Sands, Durham.",
          "postcode": "DH1 1SG",
          "admissionsPhone": "0191 3830708",
          "latitude": 54.780132,
          "longitude": -1.573146,
          "qualification2020": [
            1
          ]
        }
      ]
    },
    {
      "id": 32,
      "name": "Runshaw College",
      "website": "www.runshaw.ac.uk",
      "locations": [
        {
          "fullAddress": "Runshaw College, Langdale Road",
          "postcode": "PR25 3DQ",
          "admissionsPhone": "01772 643000",
          "latitude": 53.680997,
          "longitude": -2.689595,
          "qualification2020": [
            1
          ]
        }
      ]
    },
    {
      "id": 33,
      "name": "HCUC (Harrow College & Uxbridge College ",
      "website": "www.uxbridgecollege.ac.uk",
      "locations": [
        {
          "fullAddress": "Park Road, Uxbridge",
          "postcode": "UB8 1NQ",
          "admissionsPhone": "01895 853333",
          "latitude": 51.549947,
          "longitude": -0.469124,
          "qualification2020": [
            1
          ]
        },
        {
          "fullAddress": "College Way, off Coldharbour Lane, Hayes",
          "postcode": "UB3 3BB",
          "admissionsPhone": "01895 853333",
          "latitude": 51.515631,
          "longitude": -0.412179,
          "qualification2020": [
            3
          ]
        }
      ]
    },
    {
      "id": 34,
      "name": "St Thomas More School",
      "website": "www.stthomasmore.org.uk",
      "locations": [
        {
          "fullAddress": "St Thomas More School, Croftdale Road, Blaydon, Tyne & Wear",
          "postcode": "NE21 4BQ",
          "admissionsPhone": "0191 4995024",
          "latitude": 54.9612,
          "longitude": -1.722608,
          "qualification2020": [
            1,
            3
          ]
        }
      ]
    },
    {
      "id": 35,
      "name": "Develop",
      "website": "www.developebp.co.uk",
      "locations": [
        {
          "fullAddress": "4 Barton Way, City Office Park, Carrow Road, Norwich. ",
          "postcode": "NR1 1DL",
          "admissionsPhone": "Andy Smith",
          "latitude": 52.62367,
          "longitude": 1.315558,
          "qualification2020": [
            1
          ]
        }
      ]
    },
    {
      "id": 36,
      "name": "Exeter College",
      "website": "https://www.exe-coll.ac.uk/  ",
      "locations": [
        {
          "fullAddress": "Victoria House. Exeter College. 33-36 Queen Street. Exeter. Devon",
          "postcode": "EX4 3SR",
          "admissionsPhone": "01392 400444",
          "latitude": 50.726756,
          "longitude": -3.535014,
          "qualification2020": [
            1
          ]
        },
        {
          "fullAddress": "Devon and Exeter Construction Training Centre. Exeter College. Falcon House. Falcon Road. Exeter",
          "postcode": "EX2 7LB ",
          "admissionsPhone": "01392 400444",
          "latitude": 50.716462,
          "longitude": -3.471881,
          "qualification2020": [
            2
          ]
        },
        {
          "fullAddress": "Hele Road. Exeter College. Exeter. Devon",
          "postcode": "EX4 4JS",
          "admissionsPhone": "01392 400444",
          "latitude": 50.728223,
          "longitude": -3.538392,
          "qualification2020": [
            3
          ]
        }
      ]
    },
    {
      "id": 37,
      "name": "Peter Symonds College",
      "website": "www.psc.ac.uk",
      "locations": [
        {
          "fullAddress": "Owens Road Winchester",
          "postcode": "SO22 6RX",
          "admissionsPhone": "01962 889539",
          "latitude": 51.070701,
          "longitude": -1.321775,
          "qualification2020": [
            3
          ]
        },
        {
          "fullAddress": " Stoney Lane Weeke Winchester",
          "postcode": "SO22 6DR",
          "admissionsPhone": "01962 889539",
          "latitude": 51.075384,
          "longitude": -1.333897,
          "qualification2020": [
            3
          ]
        }
      ]
    },
    {
      "id": 38,
      "name": "Barnsley College",
      "website": "N/A",
      "locations": []
    },
    {
      "id": 39,
      "name": "City of Stoke-on-Trent Sixth Form College",
      "website": "www.stokesfc.ac.uk",
      "locations": [
        {
          "fullAddress": "Leek Road",
          "postcode": "ST4 2RU",
          "admissionsPhone": "01782854221",
          "latitude": 53.006787,
          "longitude": -2.177957,
          "qualification2020": [
            1
          ]
        }
      ]
    },
    {
      "id": 40,
      "name": "Farnborough College of Technology",
      "website": "www.farn-ct.ac.uk",
      "locations": [
        {
          "fullAddress": "Farnborough College of Technology",
          "postcode": "GU14 6SB",
          "admissionsPhone": "01252 407028",
          "latitude": 51.285554,
          "longitude": -0.751747,
          "qualification2020": [
            1
          ]
        },
        {
          "fullAddress": "Boundary Road",
          "postcode": "GU14 6SB",
          "admissionsPhone": "01252 407028",
          "latitude": 51.285554,
          "longitude": -0.751747,
          "qualification2020": [
            3
          ]
        }
      ]
    },
    {
      "id": 41,
      "name": "Priestley College",
      "website": "www.priestley.ac.uk",
      "locations": [
        {
          "fullAddress": "Priestley College, Loushers Lane, Warrington",
          "postcode": "WA4 6RD",
          "admissionsPhone": "01925 415415",
          "latitude": 53.379485,
          "longitude": -2.583436,
          "qualification2020": [
            1,
            3
          ]
        }
      ]
    },
    {
      "id": 42,
      "name": "Shipley College",
      "website": "www.shipley.ac.uk",
      "locations": [
        {
          "fullAddress": "Victoria Road",
          "postcode": "BD18 3lQ",
          "admissionsPhone": "01274 327 222",
          "latitude": 53.836819,
          "longitude": -1.790215,
          "qualification2020": [
            1,
            3
          ]
        }
      ]
    },
    {
      "id": 43,
      "name": "Ursuline High School",
      "website": "https://www.ursulinehigh.merton.sch.uk/sixth-form/",
      "locations": [
        {
          "fullAddress": "Ursuline High School, Crescent Road, Wimbledon",
          "postcode": "SW20 8HA",
          "admissionsPhone": "02082552688",
          "latitude": 51.41406,
          "longitude": -0.222757,
          "qualification2020": [
            1
          ]
        }
      ]
    },
    {
      "id": 44,
      "name": "Cardinal Newman College",
      "website": "www.cardinalnewman.ac.uk",
      "locations": [
        {
          "fullAddress": "Lark Hill Road",
          "postcode": "PR1 4HD",
          "admissionsPhone": "01772460181",
          "latitude": 53.757096,
          "longitude": -2.688869,
          "qualification2020": [
            1
          ]
        },
        {
          "fullAddress": "Lark Hill Raod",
          "postcode": "PR1 4HD",
          "admissionsPhone": "01772460181",
          "latitude": 53.757096,
          "longitude": -2.688869,
          "qualification2020": [
            3
          ]
        }
      ]
    },
    {
      "id": 45,
      "name": "Notre Dame Catholic Sixth Form College ",
      "website": "notredamecoll.ac.uk",
      "locations": [
        {
          "fullAddress": "Notre Dame Catholic Sixth Form College, St. Mark's Avenue. Leeds",
          "postcode": "LS2 9BL",
          "admissionsPhone": "0113 294 6644",
          "latitude": 53.81076,
          "longitude": -1.552662,
          "qualification2020": [
            1
          ]
        }
      ]
    }
  ]
}