{
  "qualifications": {
    "1": "Building Services Engineering for Construction",
    "2": "Design, Surveying and Planning for Construction",
    "3": "Digital Business Services",
    "4": "Digital Production, Design and Development",
    "5": "Digital Support Services",
    "6": "Education and Childcare",
    "7": "Health",
    "8": "Healthcare Science",
    "9": "Onsite Construction",
    "10": "Science"
  },
  "providers": [
    {
      "id": 1,
      "name": "Abingdon and Witney College",
      "locations": [
        {
          "name": "",
          "postcode": "OX14 1GG",
          "town": "Vale of White Horse",
          "latitude": 51.680624,
          "longitude": -1.28696,
          "qualification2020": [],
          "qualification2021": [
            4,
            6,
            7
          ],
          "website": "https://www.abingdon-witney.ac.uk/whats-new/t-levels"
        },
        {
          "name": "",
          "postcode": "OX28 6NE",
          "town": "Vale of White Horse",
          "latitude": 51.785444,
          "longitude": -1.487934,
          "qualification2020": [],
          "qualification2021": [
            4,
            6,
            7
          ],
          "website": "https://www.abingdon-witney.ac.uk/whats-new/t-levels"
        }
      ]
    },
    {
      "id": 2,
      "name": "Access Creative College",
      "locations": [
        {
          "name": "",
          "postcode": "M1 5BW",
          "town": "Manchester",
          "latitude": 53.472598,
          "longitude": -2.242874,
          "qualification2020": [],
          "qualification2021": [
            4
          ],
          "website": "https://www.accesscreative.ac.uk/study/t-levels/"
        }
      ]
    },
    {
      "id": 3,
      "name": "Activate Learning",
      "locations": [
        {
          "name": "Reading College",
          "postcode": "RG1 4HJ",
          "town": "Reading",
          "latitude": 51.454143,
          "longitude": -0.955431,
          "qualification2020": [],
          "qualification2021": [
            4
          ],
          "website": "https://www.activatelearning.ac.uk/reading"
        },
        {
          "name": "City of Oxford College",
          "postcode": "OX4 6HN",
          "town": "Oxford",
          "latitude": 51.720855,
          "longitude": -1.199541,
          "qualification2020": [],
          "qualification2021": [
            4
          ],
          "website": "https://www.activatelearning.ac.uk/oxford"
        },
        {
          "name": "City of Oxford College",
          "postcode": "OX1 1SA",
          "town": "Oxford",
          "latitude": 51.749548,
          "longitude": -1.264524,
          "qualification2020": [],
          "qualification2021": [
            7
          ],
          "website": "https://www.activatelearning.ac.uk/oxford"
        }
      ]
    },
    {
      "id": 4,
      "name": "Barking & Dagenham College",
      "locations": [
        {
          "name": "",
          "postcode": "RM7 0XU",
          "town": "Barking and Dagenham",
          "latitude": 51.56033,
          "longitude": 0.174564,
          "qualification2020": [],
          "qualification2021": [
            4,
            3,
            2,
            1
          ],
          "website": "https://www.barkingdagenhamcollege.ac.uk/"
        },
        {
          "name": "",
          "postcode": "IG11 8FJ",
          "town": "Barking and Dagenham",
          "latitude": 51.537574,
          "longitude": 0.078117,
          "qualification2020": [],
          "qualification2021": [
            2
          ],
          "website": "https://www.barkingdagenhamcollege.ac.uk/"
        }
      ]
    },
    {
      "id": 5,
      "name": "Barnsley College",
      "locations": [
        {
          "name": "",
          "postcode": "S70 2EY",
          "town": "Barnsley",
          "latitude": 53.556367,
          "longitude": -1.481277,
          "qualification2020": [
            4,
            2
          ],
          "qualification2021": [],
          "website": "https://www.barnsley.ac.uk/courses/all-about-t-levels/"
        },
        {
          "name": "",
          "postcode": "S75 1BP",
          "town": "Barnsley",
          "latitude": 53.55982,
          "longitude": -1.48368,
          "qualification2020": [
            2
          ],
          "qualification2021": [],
          "website": "https://www.barnsley.ac.uk/courses/all-about-t-levels/"
        },
        {
          "name": "",
          "postcode": "S70 2AX",
          "town": "Barnsley",
          "latitude": 53.556624,
          "longitude": -1.482572,
          "qualification2020": [
            6
          ],
          "qualification2021": [
            7
          ],
          "website": "https://www.barnsley.ac.uk/courses/all-about-t-levels/"
        }
      ]
    },
    {
      "id": 6,
      "name": "Bath College",
      "locations": [
        {
          "name": "",
          "postcode": "BA1 1UP",
          "town": "Bath and North East Somerset",
          "latitude": 51.379717,
          "longitude": -2.362652,
          "qualification2020": [],
          "qualification2021": [
            4,
            6,
            7
          ],
          "website": "https://www.bathcollege.ac.uk/"
        }
      ]
    },
    {
      "id": 7,
      "name": "Bedford College Group",
      "locations": [
        {
          "name": "Bedford College",
          "postcode": "MK42 9AH",
          "town": "Bedford",
          "latitude": 52.133347,
          "longitude": -0.468552,
          "qualification2020": [],
          "qualification2021": [
            5,
            2,
            9,
            6,
            7
          ],
          "website": "https://www.bedford.ac.uk"
        },
        {
          "name": "Tresham College",
          "postcode": "NN15 6ER",
          "town": "Kettering",
          "latitude": 52.388412,
          "longitude": -0.71174,
          "qualification2020": [],
          "qualification2021": [
            5,
            6,
            7,
            10
          ],
          "website": "https://www.tresham.ac.uk/"
        },
        {
          "name": "Tresham College",
          "postcode": "NN17 1NE",
          "town": "Corby",
          "latitude": 52.486942,
          "longitude": -0.692251,
          "qualification2020": [],
          "qualification2021": [
            5,
            9,
            1,
            10
          ],
          "website": "https://www.tresham.ac.uk/"
        },
        {
          "name": "Tresham College",
          "postcode": "NN8 1BJ",
          "town": "Wellingborough",
          "latitude": 52.300077,
          "longitude": -0.693641,
          "qualification2020": [],
          "qualification2021": [
            5
          ],
          "website": "https://www.tresham.ac.uk/"
        },
        {
          "name": "Bedford College",
          "postcode": "MK42 7QB",
          "town": "Bedford",
          "latitude": 52.108958,
          "longitude": -0.496125,
          "qualification2020": [],
          "qualification2021": [
            1
          ],
          "website": "https://www.bedford.ac.uk"
        }
      ]
    },
    {
      "id": 8,
      "name": "Bexhill College",
      "locations": [
        {
          "name": "",
          "postcode": "TN40 2JG",
          "town": "Rother",
          "latitude": 50.847112,
          "longitude": 0.490934,
          "qualification2020": [],
          "qualification2021": [
            4,
            5,
            3,
            6,
            7,
            8,
            10
          ],
          "website": "http://www.bexhillcollege.ac.uk/"
        }
      ]
    },
    {
      "id": 9,
      "name": "Bishop Burton College",
      "locations": [
        {
          "name": "",
          "postcode": "HU17 8QG",
          "town": "East Riding of Yorkshire",
          "latitude": 53.848273,
          "longitude": -0.504045,
          "qualification2020": [
            6
          ],
          "qualification2021": [
            7
          ],
          "website": "https://www.bishopburton.ac.uk/"
        }
      ]
    },
    {
      "id": 10,
      "name": "Blackpool and The Fylde College",
      "locations": [
        {
          "name": "",
          "postcode": "FY2 0HB",
          "town": "Blackpool",
          "latitude": 53.859387,
          "longitude": -3.026295,
          "qualification2020": [
            4,
            2,
            6
          ],
          "qualification2021": [
            5,
            3,
            9,
            1,
            7,
            10
          ],
          "website": "https://www.blackpool.ac.uk/t-levels"
        }
      ]
    },
    {
      "id": 11,
      "name": "Bolton College",
      "locations": [
        {
          "name": "",
          "postcode": "BL3 5BG",
          "town": "Bolton",
          "latitude": 53.574721,
          "longitude": -2.437096,
          "qualification2020": [],
          "qualification2021": [
            4,
            2,
            9,
            6,
            7,
            10
          ],
          "website": "https://www.boltoncollege.ac.uk/t-levels/"
        }
      ]
    },
    {
      "id": 12,
      "name": "Bridgwater & Taunton College",
      "locations": [
        {
          "name": "",
          "postcode": "TA1 5AX",
          "town": "Sedgemoor",
          "latitude": 51.016061,
          "longitude": -3.118879,
          "qualification2020": [
            4,
            2,
            6
          ],
          "qualification2021": [
            3,
            1,
            7
          ],
          "website": "https://www.btc.ac.uk/"
        }
      ]
    },
    {
      "id": 13,
      "name": "Buckinghamshire College Group",
      "locations": [
        {
          "name": "",
          "postcode": "HP21 8PD",
          "town": "Aylesbury Vale",
          "latitude": 51.813857,
          "longitude": -0.822655,
          "qualification2020": [],
          "qualification2021": [
            4,
            5,
            3,
            6,
            7,
            8,
            10
          ],
          "website": "https://www.buckscollegegroup.ac.uk/"
        },
        {
          "name": "",
          "postcode": "HP7 9HN",
          "town": "Aylesbury Vale",
          "latitude": 51.668961,
          "longitude": -0.58945,
          "qualification2020": [],
          "qualification2021": [
            4,
            5,
            3,
            10
          ],
          "website": "https://www.buckscollegegroup.ac.uk/"
        },
        {
          "name": "",
          "postcode": "HP10 9HE",
          "town": "Aylesbury Vale",
          "latitude": 51.606859,
          "longitude": -0.723393,
          "qualification2020": [],
          "qualification2021": [
            6,
            7,
            8
          ],
          "website": "https://www.buckscollegegroup.ac.uk/"
        }
      ]
    },
    {
      "id": 14,
      "name": "Burnley College",
      "locations": [
        {
          "name": "",
          "postcode": "BB12 0AN",
          "town": "Burnley",
          "latitude": 53.793909,
          "longitude": -2.24807,
          "qualification2020": [],
          "qualification2021": [
            10
          ],
          "website": "https://www.burnley.ac.uk/"
        }
      ]
    },
    {
      "id": 15,
      "name": "Bury College",
      "locations": [
        {
          "name": "",
          "postcode": "BL9 0DB",
          "town": "Bury",
          "latitude": 53.587875,
          "longitude": -2.294975,
          "qualification2020": [],
          "qualification2021": [
            4,
            5,
            9,
            6,
            7
          ],
          "website": "https://burycollege.ac.uk/"
        }
      ]
    },
    {
      "id": 16,
      "name": "Calderdale College",
      "locations": [
        {
          "name": "",
          "postcode": "HX1 3UZ",
          "town": "Calderdale",
          "latitude": 53.719527,
          "longitude": -1.874416,
          "qualification2020": [],
          "qualification2021": [
            4,
            5,
            7,
            8
          ],
          "website": "https://www.calderdale.ac.uk/"
        }
      ]
    },
    {
      "id": 17,
      "name": "Cambridge Regional College",
      "locations": [
        {
          "name": "",
          "postcode": "CB4 2QT",
          "town": "South Cambridgeshire",
          "latitude": 52.235278,
          "longitude": 0.13434,
          "qualification2020": [],
          "qualification2021": [
            3,
            6
          ],
          "website": "https://www.camre.ac.uk/"
        },
        {
          "name": "",
          "postcode": "PE29 1BL",
          "town": "Huntingdonshire",
          "latitude": 52.33844,
          "longitude": -0.178105,
          "qualification2020": [],
          "qualification2021": [
            3,
            6
          ],
          "website": "https://www.camre.ac.uk/"
        }
      ]
    },
    {
      "id": 18,
      "name": "Cardinal Newman College",
      "locations": [
        {
          "name": "",
          "postcode": "PR1 4HD",
          "town": "Preston",
          "latitude": 53.757096,
          "longitude": -2.688869,
          "qualification2020": [
            4,
            6
          ],
          "qualification2021": [
            5,
            3
          ],
          "website": "https://www.cardinalnewman.ac.uk/school-leavers/t-levels/"
        }
      ]
    },
    {
      "id": 19,
      "name": "Cheshire College South and West",
      "locations": [
        {
          "name": "",
          "postcode": "CW2 8AB",
          "town": "Crewe",
          "latitude": 53.089011,
          "longitude": -2.454971,
          "qualification2020": [],
          "qualification2021": [
            4,
            5,
            3,
            2,
            9,
            1,
            6,
            7,
            8,
            10
          ],
          "website": "https://www.ccsw.ac.uk/t%20levels/"
        }
      ]
    },
    {
      "id": 20,
      "name": "Chichester College Group",
      "locations": [
        {
          "name": "Crawley College",
          "postcode": "RH10 1NR",
          "town": "Crawley",
          "latitude": 51.116206,
          "longitude": -0.181516,
          "qualification2020": [
            4,
            6
          ],
          "qualification2021": [
            5
          ],
          "website": "https://www.crawley.ac.uk/study-courses/t-levels"
        },
        {
          "name": "Chichester College",
          "postcode": "PO19 1SB",
          "town": "Chichester",
          "latitude": 50.83492,
          "longitude": -0.787766,
          "qualification2020": [
            2,
            6,
            4
          ],
          "qualification2021": [
            3,
            7,
            8
          ],
          "website": "https://chichester.ac.uk/"
        }
      ]
    },
    {
      "id": 21,
      "name": "Cirencester College",
      "locations": [
        {
          "name": "",
          "postcode": "GL7 1XA",
          "town": "Cotswold",
          "latitude": 51.71269,
          "longitude": -1.986058,
          "qualification2020": [
            4,
            2,
            6
          ],
          "qualification2021": [
            5,
            3,
            7,
            8,
            10
          ],
          "website": "https://www.cirencester.ac.uk/courses/course-directory/t-levels/"
        }
      ]
    },
    {
      "id": 22,
      "name": "City College Norwich",
      "locations": [
        {
          "name": "",
          "postcode": "NR2 2LJ",
          "town": "Norwich",
          "latitude": 52.618144,
          "longitude": 1.286325,
          "qualification2020": [
            4,
            2,
            6
          ],
          "qualification2021": [
            5,
            3,
            1,
            7,
            10
          ],
          "website": "https://www.ccn.ac.uk/courses/course-types/school-leavers/search/?Section%5B131%5D=131"
        },
        {
          "name": "Paston College",
          "postcode": "NR28 9JL",
          "town": "Norwich",
          "latitude": 52.819813,
          "longitude": 1.38584,
          "qualification2020": [
            6
          ],
          "qualification2021": [],
          "website": "https://www.paston.ac.uk/courses/childcare-and-early-years/course/t-level-early-years-education-and-childcare-level-3/?query=T"
        }
      ]
    },
    {
      "id": 23,
      "name": "City of Stoke-on-Trent Sixth Form College",
      "locations": [
        {
          "name": "",
          "postcode": "ST4 2RU",
          "town": "Stoke on Trent",
          "latitude": 53.006787,
          "longitude": -2.177957,
          "qualification2020": [
            4
          ],
          "qualification2021": [
            5,
            7,
            8,
            10
          ],
          "website": "https://www.stokesfc.ac.uk/our-courses/?tex_post_tag=t-level&view=list"
        }
      ]
    },
    {
      "id": 24,
      "name": "City of Sunderland College",
      "locations": [
        {
          "name": "",
          "postcode": "SR3 4AH",
          "town": "Sunderland",
          "latitude": 54.892128,
          "longitude": -1.409322,
          "qualification2020": [],
          "qualification2021": [
            5,
            7,
            10
          ],
          "website": "https://sunderlandcollege.ac.uk/"
        },
        {
          "name": "",
          "postcode": "SR1 3NX",
          "town": "Sunderland",
          "latitude": 54.903545,
          "longitude": -1.384952,
          "qualification2020": [],
          "qualification2021": [
            1,
            9
          ],
          "website": "https://sunderlandcollege.ac.uk/"
        },
        {
          "name": "Hartlepool Sixth Form College",
          "postcode": "TS25 5PF",
          "town": "Hartlepool",
          "latitude": 54.676459,
          "longitude": -1.230283,
          "qualification2020": [],
          "qualification2021": [
            7,
            10
          ],
          "website": "https://hartlepoolsixth.ac.uk/"
        }
      ]
    },
    {
      "id": 25,
      "name": "Cranford Community College",
      "locations": [
        {
          "name": "",
          "postcode": "TW5 9PD",
          "town": "Hounslow",
          "latitude": 51.487616,
          "longitude": -0.406527,
          "qualification2020": [
            4,
            6
          ],
          "qualification2021": [],
          "website": "http://www.cranford.hounslow.sch.uk/"
        }
      ]
    },
    {
      "id": 26,
      "name": "Derby College",
      "locations": [
        {
          "name": "",
          "postcode": "DE1 3PA",
          "town": "Derby",
          "latitude": 52.925491,
          "longitude": -1.479424,
          "qualification2020": [
            4
          ],
          "qualification2021": [
            5,
            3
          ],
          "website": "https://www.derby-college.ac.uk/t-levels-welcome-to-the-next-level"
        },
        {
          "name": "",
          "postcode": "DE24 8PU",
          "town": "Derby",
          "latitude": 52.913794,
          "longitude": -1.459072,
          "qualification2020": [
            2
          ],
          "qualification2021": [],
          "website": "https://www.derby-college.ac.uk/t-levels-welcome-to-the-next-level"
        },
        {
          "name": "",
          "postcode": "DE24 8JE",
          "town": "Derby",
          "latitude": 52.916014,
          "longitude": -1.459,
          "qualification2020": [
            2,
            6
          ],
          "qualification2021": [
            8
          ],
          "website": "https://www.derby-college.ac.uk/t-levels-welcome-to-the-next-level"
        },
        {
          "name": "",
          "postcode": "DE7 6DN",
          "town": "Erewash",
          "latitude": 52.957366,
          "longitude": -1.420946,
          "qualification2020": [
            6
          ],
          "qualification2021": [],
          "website": "https://www.derby-college.ac.uk/t-levels-welcome-to-the-next-level"
        }
      ]
    },
    {
      "id": 27,
      "name": "Develop",
      "locations": [
        {
          "name": "",
          "postcode": "NR1 1DL",
          "town": "Norwich",
          "latitude": 52.62367,
          "longitude": 1.315558,
          "qualification2020": [
            4
          ],
          "qualification2021": [],
          "website": "http://www.developebp.co.uk/"
        }
      ]
    },
    {
      "id": 28,
      "name": "DN College Group",
      "locations": [
        {
          "name": "North Lindsey College",
          "postcode": "DN17 1AJ",
          "town": "North Lincolnshire",
          "latitude": 53.578566,
          "longitude": -0.66672,
          "qualification2020": [],
          "qualification2021": [
            4,
            2,
            6,
            7
          ],
          "website": "https://northlindsey.ac.uk/"
        },
        {
          "name": "Doncaster College and University Centre",
          "postcode": "DN1 2RF",
          "town": "Doncaster",
          "latitude": 53.529021,
          "longitude": -1.135603,
          "qualification2020": [],
          "qualification2021": [
            4,
            2,
            6,
            7,
            5,
            3,
            9,
            1,
            8,
            10
          ],
          "website": "https://www.don.ac.uk/"
        }
      ]
    },
    {
      "id": 29,
      "name": "Dudley College of Technology",
      "locations": [
        {
          "name": "",
          "postcode": "DY1 4AS",
          "town": "Dudley",
          "latitude": 52.514257,
          "longitude": -2.082623,
          "qualification2020": [
            4,
            6
          ],
          "qualification2021": [
            7,
            10,
            5,
            9
          ],
          "website": "https://www.dudleycol.ac.uk/School-Leavers/T-Levels"
        },
        {
          "name": "",
          "postcode": "DY1 4AD",
          "town": "Dudley",
          "latitude": 52.513689,
          "longitude": -2.085274,
          "qualification2020": [
            2
          ],
          "qualification2021": [],
          "website": "https://www.dudleycol.ac.uk/School-Leavers/T-Levels"
        }
      ]
    },
    {
      "id": 30,
      "name": "Durham Sixth Form Centre",
      "locations": [
        {
          "name": "",
          "postcode": "DH1 1SG",
          "town": "County Durham",
          "latitude": 54.780132,
          "longitude": -1.573146,
          "qualification2020": [],
          "qualification2021": [
            4,
            7
          ],
          "website": "http://www.durhamsixthformcentre.org.uk/courseinformation.html"
        }
      ]
    },
    {
      "id": 31,
      "name": "East Norfolk Sixth Form College",
      "locations": [
        {
          "name": "",
          "postcode": "NR31 7BQ",
          "town": "Great Yarmouth",
          "latitude": 52.579015,
          "longitude": 1.720474,
          "qualification2020": [],
          "qualification2021": [
            4,
            3,
            8,
            10
          ],
          "website": "https://www.eastnorfolk.ac.uk/"
        }
      ]
    },
    {
      "id": 32,
      "name": "East Sussex College Group",
      "locations": [
        {
          "name": "",
          "postcode": "BN21 2UF",
          "town": "Eastbourne",
          "latitude": 50.788909,
          "longitude": 0.272124,
          "qualification2020": [
            4,
            2,
            6
          ],
          "qualification2021": [],
          "website": "http://www.escg.ac.uk/study/t-levels/"
        },
        {
          "name": "",
          "postcode": "TN34 1BA",
          "town": "Hastings",
          "latitude": 50.857944,
          "longitude": 0.578137,
          "qualification2020": [
            4,
            2,
            6
          ],
          "qualification2021": [],
          "website": "http://www.escg.ac.uk/study/t-levels/"
        },
        {
          "name": "",
          "postcode": "BN7 2XH",
          "town": "Lewes",
          "latitude": 50.870098,
          "longitude": 0.015572,
          "qualification2020": [
            6
          ],
          "qualification2021": [],
          "website": "http://www.escg.ac.uk/study/t-levels/"
        }
      ]
    },
    {
      "id": 33,
      "name": "EKC Group",
      "locations": [
        {
          "name": "Folkestone College",
          "postcode": "CT20 2TZ",
          "town": "Folkestone and Hythe",
          "latitude": 51.082418,
          "longitude": 1.165998,
          "qualification2020": [],
          "qualification2021": [
            4,
            6,
            7
          ],
          "website": "https://www.ekcgroup.ac.uk/colleges/folkestone-college"
        },
        {
          "name": "Dover Technical College",
          "postcode": "CT16 1DH",
          "town": "Dover",
          "latitude": 51.128095,
          "longitude": 1.311512,
          "qualification2020": [],
          "qualification2021": [
            5
          ],
          "website": "https://www.ekcgroup.ac.uk/colleges/dover-technical-college"
        },
        {
          "name": "Broadstairs College",
          "postcode": "CT10 1PN",
          "town": "Thanet",
          "latitude": 51.354162,
          "longitude": 1.435027,
          "qualification2020": [],
          "qualification2021": [
            9,
            6,
            7
          ],
          "website": "https://www.ekcgroup.ac.uk/colleges/broadstairs-college"
        },
        {
          "name": "Canterbury College",
          "postcode": "CT1 3AJ",
          "town": "Canterbury",
          "latitude": 51.276098,
          "longitude": 1.090619,
          "qualification2020": [],
          "qualification2021": [
            6
          ],
          "website": "https://www.ekcgroup.ac.uk/colleges/canterbury-college"
        },
        {
          "name": "Sheppey College",
          "postcode": "ME12 1HL",
          "town": "Swale",
          "latitude": 51.442008,
          "longitude": 0.758131,
          "qualification2020": [],
          "qualification2021": [
            7
          ],
          "website": "https://www.ekcgroup.ac.uk/colleges/sheppey-college"
        },
        {
          "name": "Canterbury College",
          "postcode": "CT1 3AQ",
          "town": "Canterbury",
          "latitude": 51.274657,
          "longitude": 1.091181,
          "qualification2020": [],
          "qualification2021": [
            7
          ],
          "website": "https://www.ekcgroup.ac.uk/colleges/canterbury-college"
        }
      ]
    },
    {
      "id": 34,
      "name": "Exeter College",
      "locations": [
        {
          "name": "",
          "postcode": "EX4 3SR",
          "town": "Exeter",
          "latitude": 50.726756,
          "longitude": -3.535014,
          "qualification2020": [
            4
          ],
          "qualification2021": [
            5,
            3,
            7,
            8,
            10
          ],
          "website": "https://exe-coll.ac.uk/school-leavers/t-levels/"
        },
        {
          "name": "",
          "postcode": "EX2 7LB",
          "town": "Exeter",
          "latitude": 50.716462,
          "longitude": -3.471881,
          "qualification2020": [
            2
          ],
          "qualification2021": [
            9,
            1
          ],
          "website": "https://exe-coll.ac.uk/school-leavers/t-levels/"
        },
        {
          "name": "",
          "postcode": "EX4 4JS",
          "town": "Exeter",
          "latitude": 50.728223,
          "longitude": -3.538392,
          "qualification2020": [
            6
          ],
          "qualification2021": [
            7,
            8,
            10
          ],
          "website": "https://exe-coll.ac.uk/school-leavers/t-levels/"
        }
      ]
    },
    {
      "id": 35,
      "name": "Fareham College",
      "locations": [
        {
          "name": "",
          "postcode": "PO14 1NH",
          "town": "Fareham",
          "latitude": 50.851085,
          "longitude": -1.199216,
          "qualification2020": [
            4,
            6
          ],
          "qualification2021": [
            5,
            3,
            9,
            1,
            7,
            8,
            10
          ],
          "website": "https://www.fareham.ac.uk/t-levels/"
        }
      ]
    },
    {
      "id": 36,
      "name": "Farnborough College of Technology",
      "locations": [
        {
          "name": "",
          "postcode": "GU14 6SB",
          "town": "Rushmoor",
          "latitude": 51.285554,
          "longitude": -0.751747,
          "qualification2020": [
            4,
            6
          ],
          "qualification2021": [
            7,
            8,
            10,
            5,
            3
          ],
          "website": "https://www.farn-ct.ac.uk/school-leavers/introducing-t-levels/"
        }
      ]
    },
    {
      "id": 37,
      "name": "Furness College",
      "locations": [
        {
          "name": "",
          "postcode": "LA14 2PJ",
          "town": "Barrow in Furness",
          "latitude": 54.116534,
          "longitude": -3.242096,
          "qualification2020": [],
          "qualification2021": [
            4,
            6,
            7
          ],
          "website": "https://www.furness.ac.uk/"
        },
        {
          "name": "Barrow Sixth Form College",
          "postcode": "LA13 9LE",
          "town": "Barrow in Furness",
          "latitude": 54.129924,
          "longitude": -3.200561,
          "qualification2020": [],
          "qualification2021": [
            10
          ],
          "website": "https://www.furness.ac.uk/about/barrow-sixth-form-campus/"
        }
      ]
    },
    {
      "id": 38,
      "name": "Gateshead College",
      "locations": [
        {
          "name": "",
          "postcode": "NE8 3BE",
          "town": "Gateshead",
          "latitude": 54.966557,
          "longitude": -1.598114,
          "qualification2020": [
            4,
            6
          ],
          "qualification2021": [
            5,
            3,
            7
          ],
          "website": "https://www.gateshead.ac.uk/school-leavers/t-levels"
        }
      ]
    },
    {
      "id": 39,
      "name": "Gloucestershire College",
      "locations": [
        {
          "name": "",
          "postcode": "GL51 7SJ",
          "town": "Cheltenham",
          "latitude": 51.901613,
          "longitude": -2.11819,
          "qualification2020": [],
          "qualification2021": [
            5,
            1,
            7
          ],
          "website": "http://www.gloscol.ac.uk/"
        }
      ]
    },
    {
      "id": 40,
      "name": "Grimsby Institute",
      "locations": [
        {
          "name": "",
          "postcode": "DN34 5BQ",
          "town": "North East Lincolnshire",
          "latitude": 53.553451,
          "longitude": -0.093352,
          "qualification2020": [
            4,
            6
          ],
          "qualification2021": [
            7,
            8
          ],
          "website": "https://career6.grimsby.ac.uk/t-levels/"
        },
        {
          "name": "Scarborough TEC",
          "postcode": "YO11 3AZ",
          "town": "Scarborough",
          "latitude": 54.262655,
          "longitude": -0.394603,
          "qualification2020": [
            6
          ],
          "qualification2021": [],
          "website": "https://scarboroughtec.ac.uk/"
        }
      ]
    },
    {
      "id": 41,
      "name": "Halesowen College",
      "locations": [
        {
          "name": "",
          "postcode": "B63 3NA",
          "town": "Dudley",
          "latitude": 52.457161,
          "longitude": -2.051979,
          "qualification2020": [],
          "qualification2021": [
            6,
            7,
            8,
            10
          ],
          "website": "https://www.halesowen.ac.uk/"
        },
        {
          "name": "",
          "postcode": "B63 3NT",
          "town": "Dudley",
          "latitude": 52.453529,
          "longitude": -2.045229,
          "qualification2020": [],
          "qualification2021": [
            6,
            7,
            8
          ],
          "website": "https://www.halesowen.ac.uk/"
        }
      ]
    },
    {
      "id": 42,
      "name": "Harlow College",
      "locations": [
        {
          "name": "",
          "postcode": "CM20 3EZ",
          "town": "Harlow",
          "latitude": 51.769535,
          "longitude": 0.099306,
          "qualification2020": [],
          "qualification2021": [
            5,
            2,
            1,
            6,
            10,
            4,
            7
          ],
          "website": "https://www.harlow-college.ac.uk/study-options/t-levels"
        }
      ]
    },
    {
      "id": 43,
      "name": "Havant and South Downs College",
      "locations": [
        {
          "name": "",
          "postcode": "PO7 8AA",
          "town": "Havant",
          "latitude": 50.861598,
          "longitude": -1.021127,
          "qualification2020": [
            4,
            6,
            2
          ],
          "qualification2021": [
            5,
            3,
            7,
            8,
            10
          ],
          "website": "https://www.hsdc.ac.uk/study-with-us/t-levels/"
        },
        {
          "name": "Alton College",
          "postcode": "GU34 2LX",
          "town": "East Hampshire",
          "latitude": 51.156172,
          "longitude": -0.975771,
          "qualification2020": [
            4,
            6
          ],
          "qualification2021": [
            7
          ],
          "website": "https://www.hsdc.ac.uk/study-with-us/t-levels/"
        }
      ]
    },
    {
      "id": 44,
      "name": "HCUC",
      "locations": [
        {
          "name": "Uxbridge College",
          "postcode": "UB8 1NQ",
          "town": "Hillingdon",
          "latitude": 51.549947,
          "longitude": -0.469124,
          "qualification2020": [
            4
          ],
          "qualification2021": [
            8,
            10
          ],
          "website": "https://www.hcuc.ac.uk/"
        },
        {
          "name": "Harrow College",
          "postcode": "HA1 3AQ",
          "town": "Harrow",
          "latitude": 51.577663,
          "longitude": -0.335203,
          "qualification2020": [],
          "qualification2021": [
            3
          ],
          "website": "https://www.hcuc.ac.uk/"
        },
        {
          "name": "Uxbridge College",
          "postcode": "UB3 3BB",
          "town": "Hillingdon",
          "latitude": 51.515631,
          "longitude": -0.412179,
          "qualification2020": [
            6
          ],
          "qualification2021": [],
          "website": "https://www.uxbridge.ac.uk/courses-west-london/t-levels.html"
        }
      ]
    },
    {
      "id": 45,
      "name": "Heart of Worcestershire College",
      "locations": [
        {
          "name": "",
          "postcode": "B98 8DW",
          "town": "Redditch",
          "latitude": 52.30754,
          "longitude": -1.938376,
          "qualification2020": [],
          "qualification2021": [
            4,
            6,
            5
          ],
          "website": "https://www.howcollege.ac.uk/"
        },
        {
          "name": "",
          "postcode": "WR1 2ES",
          "town": "Worcester",
          "latitude": 52.19168,
          "longitude": -2.222471,
          "qualification2020": [],
          "qualification2021": [
            4,
            6
          ],
          "website": "https://www.howcollege.ac.uk/"
        },
        {
          "name": "",
          "postcode": "WR1 2JF",
          "town": "Worcester",
          "latitude": 52.191537,
          "longitude": -2.223534,
          "qualification2020": [],
          "qualification2021": [
            5
          ],
          "website": "https://www.howcollege.ac.uk/"
        }
      ]
    },
    {
      "id": 46,
      "name": "Herefordshire, Ludlow and North Shropshire College",
      "locations": [
        {
          "name": "Herefordshire & Ludlow College",
          "postcode": "HR1 1LS",
          "town": "Herefordshire, County of",
          "latitude": 52.061747,
          "longitude": -2.697295,
          "qualification2020": [],
          "qualification2021": [
            7,
            2
          ],
          "website": "https://www.hlcollege.ac.uk/"
        },
        {
          "name": "Ludlow College",
          "postcode": "SY8 1GD",
          "town": "Shropshire",
          "latitude": 52.367487,
          "longitude": -2.721487,
          "qualification2020": [],
          "qualification2021": [
            7
          ],
          "website": "https://www.ludlow-college.ac.uk/"
        },
        {
          "name": "North Shropshire College",
          "postcode": "SY11 4QB",
          "town": "Shropshire",
          "latitude": 52.853995,
          "longitude": -3.038071,
          "qualification2020": [],
          "qualification2021": [
            7
          ],
          "website": "https://www.nsc.ac.uk/"
        }
      ]
    },
    {
      "id": 47,
      "name": "Hopwood Hall College",
      "locations": [
        {
          "name": "",
          "postcode": "M24 6XH",
          "town": "Rochdale",
          "latitude": 53.569124,
          "longitude": -2.188708,
          "qualification2020": [],
          "qualification2021": [
            5,
            3,
            1,
            10
          ],
          "website": "https://www.hopwood.ac.uk/"
        },
        {
          "name": "",
          "postcode": "OL12 6RY",
          "town": "Rochdale",
          "latitude": 53.616729,
          "longitude": -2.162633,
          "qualification2020": [],
          "qualification2021": [
            6,
            7
          ],
          "website": "https://www.hopwood.ac.uk/"
        }
      ]
    },
    {
      "id": 48,
      "name": "Hugh Baird College",
      "locations": [
        {
          "name": "",
          "postcode": "L20 7EW",
          "town": "Sefton",
          "latitude": 53.445072,
          "longitude": -2.989404,
          "qualification2020": [],
          "qualification2021": [
            5,
            1,
            7,
            8
          ],
          "website": "https://www.hughbaird.ac.uk/"
        }
      ]
    },
    {
      "id": 49,
      "name": "Kendal College",
      "locations": [
        {
          "name": "",
          "postcode": "LA9 5AY",
          "town": "South Lakeland",
          "latitude": 54.318001,
          "longitude": -2.747034,
          "qualification2020": [],
          "qualification2021": [
            9,
            7
          ],
          "website": "https://kendal.ac.uk/"
        }
      ]
    },
    {
      "id": 50,
      "name": "La Retraite RC Girls School",
      "locations": [
        {
          "name": "",
          "postcode": "SW12 0AB",
          "town": "Lambeth",
          "latitude": 51.447913,
          "longitude": -0.14478,
          "qualification2020": [
            4,
            6
          ],
          "qualification2021": [
            3
          ],
          "website": "https://www.laretraite.lambeth.sch.uk/1194/t-levels"
        }
      ]
    },
    {
      "id": 51,
      "name": "Lakes College",
      "locations": [
        {
          "name": "",
          "postcode": "CA14 4JN",
          "town": "Allerdale",
          "latitude": 54.606042,
          "longitude": -3.531755,
          "qualification2020": [],
          "qualification2021": [
            4,
            5,
            3,
            2,
            1,
            7,
            8,
            10,
            6
          ],
          "website": "https://www.lcwc.ac.uk/"
        }
      ]
    },
    {
      "id": 52,
      "name": "Leeds City College",
      "locations": [
        {
          "name": "",
          "postcode": "LS10 1JY",
          "town": "Leeds",
          "latitude": 53.787496,
          "longitude": -1.535196,
          "qualification2020": [],
          "qualification2021": [
            4
          ],
          "website": "https://www.leedscitycollege.ac.uk/"
        },
        {
          "name": "",
          "postcode": "LS2 7BS",
          "town": "Leeds",
          "latitude": 53.799005,
          "longitude": -1.534648,
          "qualification2020": [],
          "qualification2021": [
            6,
            7
          ],
          "website": "https://www.leedscitycollege.ac.uk/"
        },
        {
          "name": "",
          "postcode": "LS3 1AA",
          "town": "Leeds",
          "latitude": 53.800447,
          "longitude": -1.559012,
          "qualification2020": [],
          "qualification2021": [
            8,
            10
          ],
          "website": "https://www.leedscitycollege.ac.uk/"
        }
      ]
    },
    {
      "id": 53,
      "name": "Leicester College",
      "locations": [
        {
          "name": "",
          "postcode": "LE1 3WL",
          "town": "Leicester",
          "latitude": 52.641029,
          "longitude": -1.133131,
          "qualification2020": [],
          "qualification2021": [
            4,
            5
          ],
          "website": "https://leicestercollege.ac.uk/"
        },
        {
          "name": "",
          "postcode": "LE1 1FB",
          "town": "Leicester",
          "latitude": 52.635212,
          "longitude": -1.129359,
          "qualification2020": [],
          "qualification2021": [
            4,
            5
          ],
          "website": "https://leicestercollege.ac.uk/"
        },
        {
          "name": "",
          "postcode": "LE2 7LW",
          "town": "Leicester",
          "latitude": 52.622482,
          "longitude": -1.133165,
          "qualification2020": [],
          "qualification2021": [
            9,
            1,
            3,
            10
          ],
          "website": "https://leicestercollege.ac.uk/"
        },
        {
          "name": "",
          "postcode": "LE1 3WA",
          "town": "Leicester",
          "latitude": 52.643993,
          "longitude": -1.127936,
          "qualification2020": [],
          "qualification2021": [
            6,
            7,
            8
          ],
          "website": "https://leicestercollege.ac.uk/"
        }
      ]
    },
    {
      "id": 54,
      "name": "Lordswood Girls' School & Sixth Form Centre",
      "locations": [
        {
          "name": "",
          "postcode": "B17 8QB",
          "town": "Birmingham",
          "latitude": 52.468755,
          "longitude": -1.963214,
          "qualification2020": [
            6
          ],
          "qualification2021": [],
          "website": "http://www.lordswoodgirls.co.uk/"
        }
      ]
    },
    {
      "id": 55,
      "name": "Loughborough College",
      "locations": [
        {
          "name": "",
          "postcode": "LE11 3BT",
          "town": "Charnwood",
          "latitude": 52.767512,
          "longitude": -1.220321,
          "qualification2020": [],
          "qualification2021": [
            4,
            1,
            6,
            7,
            8,
            10
          ],
          "website": "https://www.loucoll.ac.uk/"
        }
      ]
    },
    {
      "id": 56,
      "name": "Manchester College",
      "locations": [
        {
          "name": "",
          "postcode": "M11 2WH",
          "town": "Manchester",
          "latitude": 53.471845,
          "longitude": -2.187628,
          "qualification2020": [],
          "qualification2021": [
            4,
            3,
            2,
            9,
            1,
            7,
            8,
            6,
            10
          ],
          "website": "https://www.ltegroup.co.uk/"
        }
      ]
    },
    {
      "id": 57,
      "name": "Middlesbrough College",
      "locations": [
        {
          "name": "",
          "postcode": "TS2 1AD",
          "town": "Middlesbrough",
          "latitude": 54.579944,
          "longitude": -1.226811,
          "qualification2020": [],
          "qualification2021": [
            4,
            2,
            1,
            6,
            7,
            5,
            3,
            9,
            8,
            10
          ],
          "website": "https://www.northernskills.co.uk/"
        }
      ]
    },
    {
      "id": 58,
      "name": "Midkent College",
      "locations": [
        {
          "name": "",
          "postcode": "ME7 1FN",
          "town": "Medway",
          "latitude": 51.393598,
          "longitude": 0.541529,
          "qualification2020": [],
          "qualification2021": [
            7,
            10
          ],
          "website": "https://www.midkent.ac.uk/"
        }
      ]
    },
    {
      "id": 59,
      "name": "Milton Keynes College",
      "locations": [
        {
          "name": "",
          "postcode": "MK6 5LP",
          "town": "Milton Keynes",
          "latitude": 52.027987,
          "longitude": -0.752148,
          "qualification2020": [],
          "qualification2021": [
            4,
            5,
            3,
            1,
            6
          ],
          "website": "https://www.mkcollege.ac.uk/"
        }
      ]
    },
    {
      "id": 60,
      "name": "Mulberry University Technical College",
      "locations": [
        {
          "name": "",
          "postcode": "E3 2RU",
          "town": "Tower Hamlets",
          "latitude": 51.533947,
          "longitude": -0.026425,
          "qualification2020": [],
          "qualification2021": [
            7,
            8,
            10
          ],
          "website": "http://mulberryutc.org/"
        }
      ]
    },
    {
      "id": 61,
      "name": "Nelson and Colne College",
      "locations": [
        {
          "name": "",
          "postcode": "BB9 7YT",
          "town": "Pendle",
          "latitude": 53.84442,
          "longitude": -2.221148,
          "qualification2020": [
            4,
            6
          ],
          "qualification2021": [
            5,
            7,
            10
          ],
          "website": "https://www.nelson.ac.uk/16-18/t-levels/"
        },
        {
          "name": "Accrington and Rossendale College",
          "postcode": "BB5 2AR",
          "town": "Hyndburn",
          "latitude": 53.750521,
          "longitude": -2.35606,
          "qualification2020": [
            4,
            6
          ],
          "qualification2021": [
            5,
            7
          ],
          "website": "https://www.accross.ac.uk/school-leavers/t-levels/"
        }
      ]
    },
    {
      "id": 62,
      "name": "New City College",
      "locations": [
        {
          "name": "",
          "postcode": "RM6 4XT",
          "town": "Havering",
          "latitude": 51.579951,
          "longitude": 0.119109,
          "qualification2020": [],
          "qualification2021": [
            6
          ],
          "website": "https://www.ncclondon.ac.uk/"
        },
        {
          "name": "",
          "postcode": "IG10 3SA",
          "town": "Epping Forest",
          "latitude": 51.648392,
          "longitude": 0.075449,
          "qualification2020": [],
          "qualification2021": [
            6
          ],
          "website": "https://www.ncclondon.ac.uk/"
        }
      ]
    },
    {
      "id": 63,
      "name": "New College Durham",
      "locations": [
        {
          "name": "",
          "postcode": "DH1 5ES",
          "town": "County Durham",
          "latitude": 54.795913,
          "longitude": -1.594398,
          "qualification2020": [
            4,
            2,
            6
          ],
          "qualification2021": [
            5,
            3,
            7,
            9
          ],
          "website": "https://www.newcollegedurham.ac.uk/"
        }
      ]
    },
    {
      "id": 64,
      "name": "New College Swindon",
      "locations": [
        {
          "name": "",
          "postcode": "SN3 1AH",
          "town": "Swindon",
          "latitude": 51.557469,
          "longitude": -1.758301,
          "qualification2020": [],
          "qualification2021": [
            4,
            6,
            7,
            5,
            3
          ],
          "website": "http://www.newcollege.ac.uk/"
        }
      ]
    },
    {
      "id": 65,
      "name": "Newcastle and Stafford Colleges Group",
      "locations": [
        {
          "name": "Newcastle College",
          "postcode": "ST52GB",
          "town": "Newcastle under Lyme",
          "latitude": 53.015303,
          "longitude": -2.237988,
          "qualification2020": [],
          "qualification2021": [
            6
          ],
          "website": "https://nscg.ac.uk/"
        },
        {
          "name": "Stafford College",
          "postcode": "ST162QR",
          "town": "Stafford",
          "latitude": 52.806578,
          "longitude": -2.120352,
          "qualification2020": [],
          "qualification2021": [
            6
          ],
          "website": "https://nscg.ac.uk/"
        }
      ]
    },
    {
      "id": 66,
      "name": "Newham College of Further Education",
      "locations": [
        {
          "name": "",
          "postcode": "E6 6ER",
          "town": "Newham",
          "latitude": 51.531751,
          "longitude": 0.054842,
          "qualification2020": [],
          "qualification2021": [
            3,
            4,
            5,
            8,
            10
          ],
          "website": "https://www.newham.ac.uk/"
        },
        {
          "name": "",
          "postcode": "E15 4HT",
          "town": "Newham",
          "latitude": 51.539819,
          "longitude": 0.008163,
          "qualification2020": [],
          "qualification2021": [
            7
          ],
          "website": "https://www.newham.ac.uk/"
        }
      ]
    },
    {
      "id": 67,
      "name": "Newham Sixth Form College",
      "locations": [
        {
          "name": "",
          "postcode": "E13 8SG",
          "town": "Newham",
          "latitude": 51.520068,
          "longitude": 0.031699,
          "qualification2020": [],
          "qualification2021": [
            2,
            6
          ],
          "website": "https://www.newvic.ac.uk/"
        }
      ]
    },
    {
      "id": 68,
      "name": "Notre Dame Catholic Sixth Form College",
      "locations": [
        {
          "name": "",
          "postcode": "LS2 9BL",
          "town": "Leeds",
          "latitude": 53.81076,
          "longitude": -1.552662,
          "qualification2020": [
            4
          ],
          "qualification2021": [
            7
          ],
          "website": "https://www.notredamecoll.ac.uk/courses/digital-t-level/"
        }
      ]
    },
    {
      "id": 69,
      "name": "Nottingham College",
      "locations": [
        {
          "name": "",
          "postcode": "NG1 7HB",
          "town": "Nottingham",
          "latitude": 52.949517,
          "longitude": -1.143699,
          "qualification2020": [],
          "qualification2021": [
            4,
            5,
            3,
            6,
            7,
            8,
            10
          ],
          "website": "https://www.nottinghamcollege.ac.uk/"
        },
        {
          "name": "",
          "postcode": "NG8 6AQ",
          "town": "Nottingham",
          "latitude": 52.983856,
          "longitude": -1.196179,
          "qualification2020": [],
          "qualification2021": [
            7,
            8,
            10
          ],
          "website": "https://www.nottinghamcollege.ac.uk/"
        }
      ]
    },
    {
      "id": 70,
      "name": "Oldham College",
      "locations": [
        {
          "name": "",
          "postcode": "OL96AA",
          "town": "Oldham",
          "latitude": 53.542626,
          "longitude": -2.119959,
          "qualification2020": [],
          "qualification2021": [
            4,
            5,
            3,
            2,
            9,
            1,
            6,
            7,
            8,
            10
          ],
          "website": "https://www.oldham.ac.uk/"
        }
      ]
    },
    {
      "id": 71,
      "name": "Oldham Sixth Form College",
      "locations": [
        {
          "name": "",
          "postcode": "OL8 1XU",
          "town": "Oldham",
          "latitude": 53.538654,
          "longitude": -2.11865,
          "qualification2020": [
            4
          ],
          "qualification2021": [
            7,
            8
          ],
          "website": "https://www.osfc.ac.uk/courses/digital-t-level/"
        }
      ]
    },
    {
      "id": 72,
      "name": "Painsley Catholic College",
      "locations": [
        {
          "name": "",
          "postcode": "ST10 1LL",
          "town": "Staffordshire Moorlands",
          "latitude": 52.980124,
          "longitude": -1.988699,
          "qualification2020": [
            4
          ],
          "qualification2021": [
            3,
            7
          ],
          "website": "http://www.painsley.co.uk/sixth-form/t-levels/"
        }
      ]
    },
    {
      "id": 73,
      "name": "Peter Symonds College",
      "locations": [
        {
          "name": "",
          "postcode": "SO22 6RX",
          "town": "Winchester",
          "latitude": 51.070701,
          "longitude": -1.321775,
          "qualification2020": [
            6
          ],
          "qualification2021": [],
          "website": "https://www.psc.ac.uk/courses/2020/education/"
        }
      ]
    },
    {
      "id": 74,
      "name": "Petroc College",
      "locations": [
        {
          "name": "",
          "postcode": "EX31 2BQ",
          "town": "North Devon",
          "latitude": 51.072452,
          "longitude": -4.069473,
          "qualification2020": [],
          "qualification2021": [
            4,
            5,
            3,
            2,
            1,
            6,
            7,
            8,
            10
          ],
          "website": "https://www.petroc.ac.uk/courses-search/t-levels"
        },
        {
          "name": "",
          "postcode": "EX16 6SH",
          "town": "Mid Devon",
          "latitude": 50.912726,
          "longitude": -3.491992,
          "qualification2020": [],
          "qualification2021": [
            4,
            5,
            3,
            2,
            1,
            6,
            7,
            8,
            10
          ],
          "website": "https://www.petroc.ac.uk/courses-search/t-levels"
        },
        {
          "name": "",
          "postcode": "EX31 3NJ",
          "town": "North Devon",
          "latitude": 51.065262,
          "longitude": -4.080708,
          "qualification2020": [],
          "qualification2021": [
            4,
            5,
            3,
            2,
            1,
            6,
            7,
            8,
            10
          ],
          "website": "https://www.petroc.ac.uk/courses-search/t-levels"
        }
      ]
    },
    {
      "id": 75,
      "name": "Preston College",
      "locations": [
        {
          "name": "",
          "postcode": "PR2 8UR",
          "town": "Preston",
          "latitude": 53.783867,
          "longitude": -2.700493,
          "qualification2020": [],
          "qualification2021": [
            2,
            7,
            10
          ],
          "website": "https://www.preston.ac.uk/"
        }
      ]
    },
    {
      "id": 76,
      "name": "Priestley College",
      "locations": [
        {
          "name": "",
          "postcode": "WA4 6RD",
          "town": "Warrington",
          "latitude": 53.379485,
          "longitude": -2.583436,
          "qualification2020": [
            4,
            6
          ],
          "qualification2021": [
            7,
            10
          ],
          "website": "https://www.priestley.ac.uk/t-levels-at-priestley/"
        }
      ]
    },
    {
      "id": 77,
      "name": "Runshaw College",
      "locations": [
        {
          "name": "",
          "postcode": "PR25 3DQ",
          "town": "South Ribble",
          "latitude": 53.680997,
          "longitude": -2.689595,
          "qualification2020": [
            4
          ],
          "qualification2021": [
            5,
            3,
            7,
            8,
            10
          ],
          "website": "https://www.runshaw.ac.uk/"
        }
      ]
    },
    {
      "id": 78,
      "name": "Salesian School",
      "locations": [
        {
          "name": "",
          "postcode": "KT16 8BX",
          "town": "Runnymede",
          "latitude": 51.383685,
          "longitude": -0.502184,
          "qualification2020": [],
          "qualification2021": [
            4,
            6
          ],
          "website": "https://salesian.surrey.sch.uk/t-levels/"
        }
      ]
    },
    {
      "id": 79,
      "name": "Sandwell Academy",
      "locations": [
        {
          "name": "",
          "postcode": "B71 4LG",
          "town": "Sandwell",
          "latitude": 52.50705,
          "longitude": -1.965917,
          "qualification2020": [
            4
          ],
          "qualification2021": [
            7
          ],
          "website": "http://www.sandwellacademy.com/page/6th-tlevels"
        }
      ]
    },
    {
      "id": 80,
      "name": "Sandwell College",
      "locations": [
        {
          "name": "",
          "postcode": "B70 6AW",
          "town": "Sandwell",
          "latitude": 52.515086,
          "longitude": -1.992087,
          "qualification2020": [],
          "qualification2021": [
            3,
            9,
            6,
            7
          ],
          "website": "https://www.sandwell.ac.uk/"
        }
      ]
    },
    {
      "id": 81,
      "name": "Scarborough Sixth Form College",
      "locations": [
        {
          "name": "",
          "postcode": "YO12 5LF",
          "town": "Scarborough",
          "latitude": 54.275292,
          "longitude": -0.430757,
          "qualification2020": [
            6
          ],
          "qualification2021": [
            7,
            8,
            10
          ],
          "website": "https://s6f.org.uk/"
        }
      ]
    },
    {
      "id": 82,
      "name": "SCC Group",
      "locations": [
        {
          "name": "FutureSkills at MediaCityUK",
          "postcode": "M50 2PU",
          "town": "Salford",
          "latitude": 53.477184,
          "longitude": -2.294462,
          "qualification2020": [],
          "qualification2021": [
            4
          ],
          "website": "https://www.salfordcc.ac.uk/"
        },
        {
          "name": "Eccles Sixth Form College",
          "postcode": "M30 9FJ",
          "town": "Salford",
          "latitude": 53.495953,
          "longitude": -2.3382,
          "qualification2020": [],
          "qualification2021": [
            7
          ],
          "website": "https://www.salfordcc.ac.uk/"
        }
      ]
    },
    {
      "id": 83,
      "name": "Shipley College of Further Education",
      "locations": [
        {
          "name": "",
          "postcode": "BD18 3LQ",
          "town": "Bradford",
          "latitude": 53.836819,
          "longitude": -1.790215,
          "qualification2020": [
            4,
            6
          ],
          "qualification2021": [
            5,
            3,
            7,
            8
          ],
          "website": "https://www.shipley.ac.uk/courses/categories/t-levels/full-time/"
        }
      ]
    },
    {
      "id": 84,
      "name": "Solihull College & University Centre",
      "locations": [
        {
          "name": "",
          "postcode": "B91 1SB",
          "town": "Solihull",
          "latitude": 52.409568,
          "longitude": -1.792148,
          "qualification2020": [],
          "qualification2021": [
            4
          ],
          "website": "https://www.solihull.ac.uk/"
        }
      ]
    },
    {
      "id": 85,
      "name": "South Devon College",
      "locations": [
        {
          "name": "",
          "postcode": "TQ4 7EJ",
          "town": "Torbay",
          "latitude": 50.414646,
          "longitude": -3.587847,
          "qualification2020": [],
          "qualification2021": [
            4,
            5,
            2,
            9,
            1,
            7,
            10,
            6
          ],
          "website": "https://www.southdevon.ac.uk/"
        }
      ]
    },
    {
      "id": 86,
      "name": "South Essex College",
      "locations": [
        {
          "name": "",
          "postcode": "SS14 3AY",
          "town": "Basildon",
          "latitude": 51.581497,
          "longitude": 0.449399,
          "qualification2020": [],
          "qualification2021": [
            4
          ],
          "website": "https://www.southessex.ac.uk/t-levels/?&level_1_gcse=true&level_2_gcse_btec=true&level_3_btec_a_level=true&a_level=true"
        },
        {
          "name": "",
          "postcode": "SS9 5LY",
          "town": "Southend-on-Sea",
          "latitude": 51.566937,
          "longitude": 0.643543,
          "qualification2020": [],
          "qualification2021": [
            9
          ],
          "website": "https://www.southessex.ac.uk/t-levels/?&level_1_gcse=true&level_2_gcse_btec=true&level_3_btec_a_level=true&a_level=true"
        },
        {
          "name": "",
          "postcode": "SS1 1ND",
          "town": "Southend-on-Sea",
          "latitude": 51.537958,
          "longitude": 0.71191,
          "qualification2020": [],
          "qualification2021": [
            6,
            2
          ],
          "website": "https://www.southessex.ac.uk/t-levels/?&level_1_gcse=true&level_2_gcse_btec=true&level_3_btec_a_level=true&a_level=true"
        }
      ]
    },
    {
      "id": 87,
      "name": "St Thomas More Catholic School",
      "locations": [
        {
          "name": "",
          "postcode": "NE21 4BQ",
          "town": "Blaydon",
          "latitude": 54.9612,
          "longitude": -1.722608,
          "qualification2020": [
            4,
            6
          ],
          "qualification2021": [
            5,
            3,
            7
          ],
          "website": "https://www.stthomasmore.org.uk/"
        }
      ]
    },
    {
      "id": 88,
      "name": "Stanmore College",
      "locations": [
        {
          "name": "",
          "postcode": "HA7 4BQ",
          "town": "Harrow",
          "latitude": 51.61362,
          "longitude": -0.310489,
          "qualification2020": [],
          "qualification2021": [
            6,
            10
          ],
          "website": "https://stanmore.ac.uk/T-Levels"
        }
      ]
    },
    {
      "id": 89,
      "name": "Strode College",
      "locations": [
        {
          "name": "",
          "postcode": "BA16 0AB",
          "town": "Mendip",
          "latitude": 51.130495,
          "longitude": -2.734039,
          "qualification2020": [
            4,
            6
          ],
          "qualification2021": [
            7,
            8,
            10,
            5,
            3
          ],
          "website": "https://www.strode-college.ac.uk/courses/whats-right-for-you/t-levels/what-t-levels-can-i-study/"
        }
      ]
    },
    {
      "id": 90,
      "name": "Suffolk New College",
      "locations": [
        {
          "name": "",
          "postcode": "IP4 1LT",
          "town": "Ipswich",
          "latitude": 52.054871,
          "longitude": 1.165925,
          "qualification2020": [
            2,
            6,
            4
          ],
          "qualification2021": [
            5,
            1,
            7,
            8,
            10,
            3
          ],
          "website": "https://www.suffolk.ac.uk/courses/t-levels"
        },
        {
          "name": "",
          "postcode": "IP6 9EY",
          "town": "Ipswich",
          "latitude": 52.141129,
          "longitude": 1.213221,
          "qualification2020": [],
          "qualification2021": [
            9
          ],
          "website": "https://www.suffolk.ac.uk/courses/t-levels"
        }
      ]
    },
    {
      "id": 91,
      "name": "The College of Richard Collyer",
      "locations": [
        {
          "name": "",
          "postcode": "RH12 2EJ",
          "town": "Horsham",
          "latitude": 51.071001,
          "longitude": -0.324301,
          "qualification2020": [
            4,
            6
          ],
          "qualification2021": [],
          "website": "https://www.collyers.ac.uk/"
        }
      ]
    },
    {
      "id": 92,
      "name": "The College of West Anglia",
      "locations": [
        {
          "name": "",
          "postcode": "PE30 2QW",
          "town": "Kings Lynn and West Norfolk",
          "latitude": 52.756352,
          "longitude": 0.410694,
          "qualification2020": [],
          "qualification2021": [
            6,
            7
          ],
          "website": "https://cwa.ac.uk/"
        },
        {
          "name": "",
          "postcode": "PE13 2JE",
          "town": "Fenland",
          "latitude": 52.659598,
          "longitude": 0.168662,
          "qualification2020": [],
          "qualification2021": [
            6,
            7
          ],
          "website": "https://cwa.ac.uk/"
        }
      ]
    },
    {
      "id": 93,
      "name": "The Leigh University Technical College",
      "locations": [
        {
          "name": "",
          "postcode": "DA1 5TF",
          "town": "Dartford",
          "latitude": 51.459986,
          "longitude": 0.223992,
          "qualification2020": [
            4
          ],
          "qualification2021": [
            5
          ],
          "website": "http://theleighutc.org.uk/new-t-levels-combine-your-studies-with-on-the-job-learning/"
        }
      ]
    },
    {
      "id": 94,
      "name": "Capital City College Group",
      "locations": [
        {
          "name": "City and Islington College",
          "postcode": "N7 0SP",
          "town": "Islington",
          "latitude": 51.55494,
          "longitude": -0.119209,
          "qualification2020": [],
          "qualification2021": [
            4,
            5,
            3
          ],
          "website": "https://www.candi.ac.uk/"
        },
        {
          "name": "Westminster Kingsway College",
          "postcode": "WC1X 8RA",
          "town": "Camden",
          "latitude": 51.526904,
          "longitude": -0.118793,
          "qualification2020": [],
          "qualification2021": [
            4,
            8,
            10
          ],
          "website": "https://www.westking.ac.uk/"
        },
        {
          "name": "City and Islington College",
          "postcode": "N7 0RN",
          "town": "Islington",
          "latitude": 51.556571,
          "longitude": -0.11832,
          "qualification2020": [],
          "qualification2021": [
            6
          ],
          "website": "https://www.candi.ac.uk/"
        },
        {
          "name": "City and Islington College",
          "postcode": "EC1V 7DD",
          "town": "Islington",
          "latitude": 51.530345,
          "longitude": -0.104681,
          "qualification2020": [],
          "qualification2021": [
            8
          ],
          "website": "https://www.candi.ac.uk/"
        }
      ]
    },
    {
      "id": 95,
      "name": "Thorpe St Andrew School and Sixth Form",
      "locations": [
        {
          "name": "",
          "postcode": "NR7 0XS",
          "town": "Broadland",
          "latitude": 52.636136,
          "longitude": 1.355735,
          "qualification2020": [
            4,
            6
          ],
          "qualification2021": [],
          "website": "https://thorpestandrewschool.org.uk/sixth-form/courses-on-offer/"
        }
      ]
    },
    {
      "id": 96,
      "name": "Trafford College Group",
      "locations": [
        {
          "name": "Trafford College",
          "postcode": "WA14 5PQ",
          "town": "Trafford",
          "latitude": 53.405469,
          "longitude": -2.349545,
          "qualification2020": [],
          "qualification2021": [
            5,
            1,
            8
          ],
          "website": "https://trafford.ac.uk/"
        },
        {
          "name": "Stockport College",
          "postcode": "SK1 3UQ",
          "town": "Stockport",
          "latitude": 53.404275,
          "longitude": -2.158962,
          "qualification2020": [],
          "qualification2021": [
            6
          ],
          "website": "https://stockport.ac.uk/"
        }
      ]
    },
    {
      "id": 97,
      "name": "Truro and Penwith College",
      "locations": [
        {
          "name": "",
          "postcode": "TR1 3XX",
          "town": "Cornwall",
          "latitude": 50.262794,
          "longitude": -5.100783,
          "qualification2020": [
            4,
            2,
            6
          ],
          "qualification2021": [
            5,
            3,
            9,
            7,
            8,
            10
          ],
          "website": "https://www.truro-penwith.ac.uk/what-to-study/further-education/t-levels"
        }
      ]
    },
    {
      "id": 98,
      "name": "University College Birmingham",
      "locations": [
        {
          "name": "",
          "postcode": "B3 1JP",
          "town": "Birmingham",
          "latitude": 52.482263,
          "longitude": -1.906807,
          "qualification2020": [],
          "qualification2021": [
            6,
            7
          ],
          "website": "https://www.ucb.ac.uk/our-courses/college-courses/t-levels.aspx"
        }
      ]
    },
    {
      "id": 99,
      "name": "Ursuline High School",
      "locations": [
        {
          "name": "",
          "postcode": "SW20 8HA",
          "town": "Merton",
          "latitude": 51.41406,
          "longitude": -0.222757,
          "qualification2020": [
            4
          ],
          "qualification2021": [],
          "website": "https://www.ursulinehigh.merton.sch.uk/sixth-form/sixth-form-life-2/what-are-t-levels/"
        }
      ]
    },
    {
      "id": 100,
      "name": "Wakefield College",
      "locations": [
        {
          "name": "",
          "postcode": "WF1 2DH",
          "town": "Wakefield",
          "latitude": 53.685588,
          "longitude": -1.503855,
          "qualification2020": [],
          "qualification2021": [
            5,
            2,
            6
          ],
          "website": "https://courses.wakefield.ac.uk/"
        }
      ]
    },
    {
      "id": 101,
      "name": "Walsall College",
      "locations": [
        {
          "name": "",
          "postcode": "WS2 8ES",
          "town": "Walsall",
          "latitude": 52.589449,
          "longitude": -1.982554,
          "qualification2020": [
            4,
            6
          ],
          "qualification2021": [
            5,
            3,
            7,
            8,
            10
          ],
          "website": "https://www.walsallcollege.ac.uk/modes-of-study/courses-16-19s/t-levels/"
        },
        {
          "name": "",
          "postcode": "WS2 8AB",
          "town": "Walsall",
          "latitude": 52.591047,
          "longitude": -1.983596,
          "qualification2020": [
            2
          ],
          "qualification2021": [
            1
          ],
          "website": "https://www.walsallcollege.ac.uk/modes-of-study/courses-16-19s/t-levels/"
        }
      ]
    },
    {
      "id": 102,
      "name": "Walsall Studio School",
      "locations": [
        {
          "name": "",
          "postcode": "WS1 1RL",
          "town": "Walsall",
          "latitude": 52.582479,
          "longitude": -1.982079,
          "qualification2020": [
            4
          ],
          "qualification2021": [
            3
          ],
          "website": "https://walsallstudio.school/"
        }
      ]
    },
    {
      "id": 103,
      "name": "Warwickshire College Group",
      "locations": [
        {
          "name": "Malvern Hills College",
          "postcode": "WR14 2YH",
          "town": "Malvern Hills",
          "latitude": 52.113473,
          "longitude": -2.322755,
          "qualification2020": [],
          "qualification2021": [
            5
          ],
          "website": "https://wcg.ac.uk/"
        },
        {
          "name": "Royal Leamington Spa College",
          "postcode": "CV32 5JE",
          "town": "Warwick",
          "latitude": 52.287561,
          "longitude": -1.549577,
          "qualification2020": [],
          "qualification2021": [
            5,
            4,
            3
          ],
          "website": "https://wcg.ac.uk/"
        }
      ]
    },
    {
      "id": 104,
      "name": "West Midlands University Technical College",
      "locations": [
        {
          "name": "",
          "postcode": "WV10 0JR",
          "town": "Wolverhampton",
          "latitude": 52.591888,
          "longitude": -2.120145,
          "qualification2020": [],
          "qualification2021": [
            2
          ],
          "website": "https://westmidsutc.co.uk/"
        }
      ]
    },
    {
      "id": 105,
      "name": "West Suffolk College",
      "locations": [
        {
          "name": "",
          "postcode": "IP33 3TB",
          "town": "West Suffolk",
          "latitude": 52.252393,
          "longitude": 0.696519,
          "qualification2020": [],
          "qualification2021": [
            5
          ],
          "website": "https://www.wsc.ac.uk/"
        },
        {
          "name": "",
          "postcode": "IP33 3RL",
          "town": "West Suffolk",
          "latitude": 52.249242,
          "longitude": 0.700211,
          "qualification2020": [],
          "qualification2021": [
            6,
            7
          ],
          "website": "https://www.wsc.ac.uk/"
        }
      ]
    },
    {
      "id": 106,
      "name": "Weston College",
      "locations": [
        {
          "name": "",
          "postcode": "BS23 4QU",
          "town": "North Somerset",
          "latitude": 51.324461,
          "longitude": -2.968688,
          "qualification2020": [
            4,
            2
          ],
          "qualification2021": [],
          "website": "https://www.weston.ac.uk/what-can-i-study/courses-16-18-year-olds/t-levels"
        },
        {
          "name": "",
          "postcode": "BS22 8NL",
          "town": "North Somerset",
          "latitude": 51.34938,
          "longitude": -2.948269,
          "qualification2020": [
            6
          ],
          "qualification2021": [],
          "website": "https://www.weston.ac.uk/what-can-i-study/courses-16-18-year-olds/t-levels"
        },
        {
          "name": "",
          "postcode": "BS23 2AL",
          "town": "North Somerset",
          "latitude": 51.350953,
          "longitude": -2.981524,
          "qualification2020": [],
          "qualification2021": [
            7
          ],
          "website": "https://www.weston.ac.uk/what-can-i-study/courses-16-18-year-olds/t-levels"
        }
      ]
    },
    {
      "id": 107,
      "name": "Wigan & Leigh College",
      "locations": [
        {
          "name": "",
          "postcode": "WN1 2JH",
          "town": "Wigan",
          "latitude": 53.555867,
          "longitude": -2.638136,
          "qualification2020": [],
          "qualification2021": [
            9,
            1
          ],
          "website": "https://www.wigan-leigh.ac.uk/16-18-full-time-courses/t-level"
        },
        {
          "name": "",
          "postcode": "WN1 1RS",
          "town": "Wigan",
          "latitude": 53.546967,
          "longitude": -2.635089,
          "qualification2020": [],
          "qualification2021": [
            6,
            7,
            10
          ],
          "website": "https://www.wigan-leigh.ac.uk/16-18-full-time-courses/t-level"
        },
        {
          "name": "",
          "postcode": "WN7 4JY",
          "town": "Wigan",
          "latitude": 53.489454,
          "longitude": -2.531079,
          "qualification2020": [],
          "qualification2021": [
            7
          ],
          "website": "https://www.wigan-leigh.ac.uk/16-18-full-time-courses/t-level"
        }
      ]
    },
    {
      "id": 108,
      "name": "Wilberforce College",
      "locations": [
        {
          "name": "",
          "postcode": "HU8 9HD",
          "town": "Kingston upon Hull, City of",
          "latitude": 53.774574,
          "longitude": -0.278441,
          "qualification2020": [],
          "qualification2021": [
            7
          ],
          "website": "https://wilberforce.ac.uk/"
        }
      ]
    },
    {
      "id": 109,
      "name": "Wyke Sixth Form College",
      "locations": [
        {
          "name": "",
          "postcode": "HU5 4NT",
          "town": "Kingston upon Hull, City of",
          "latitude": 53.766084,
          "longitude": -0.387376,
          "qualification2020": [],
          "qualification2021": [
            4,
            5,
            7,
            8,
            10
          ],
          "website": "https://wyke.ac.uk/"
        }
      ]
    },
    {
      "id": 110,
      "name": "Yeovil College",
      "locations": [
        {
          "name": "",
          "postcode": "BA21 4DR",
          "town": "South Somerset",
          "latitude": 50.948522,
          "longitude": -2.63778,
          "qualification2020": [],
          "qualification2021": [
            4,
            5,
            3,
            6,
            7,
            8,
            10
          ],
          "website": "https://www.yeovil.ac.uk/"
        }
      ]
    },
    {
      "id": 111,
      "name": "York College",
      "locations": [
        {
          "name": "",
          "postcode": "YO23 2BB",
          "town": "York",
          "latitude": 53.929705,
          "longitude": -1.113609,
          "qualification2020": [
            2
          ],
          "qualification2021": [
            4,
            6,
            7
          ],
          "website": "https://www.yorkcollege.ac.uk/course-types/vocational/3724-t-levels.html"
        }
      ]
    }
  ]
}
