{
  "providers": [
    {
      "ukPrn": 10035123,
      "name": "BIDDULPH HIGH SCHOOL",
      "locations": [
        {
          "postcode": "ST8 7AR",
          "town": "STOKE-ON-TRENT",
          "latitude": 53.105857,
          "longitude": -2.171092,
          "website": "https://biddulphhigh.co.uk/",
          "email": "office@biddulphhigh.co.uk",
          "telephone": "01782 523977",
          "deliveryYears": [
            {
              "year": 2022,
              "qualifications": [ 41 ]
            }
          ]
        }
      ]
    },
    {
      "ukPrn": 10000948,
      "name": "BROMLEY COLLEGE OF FURTHER AND HIGHER EDUCATION",
      "locations": [
        {
          "postcode": "BR2 8HE",
          "town": "BROMLEY",
          "latitude": 51.38666,
          "longitude": 0.034796,
          "website": "https://www.lsec.ac.uk/t-levels",
          "telephone": "020 8295 7000",
          "deliveryYears": [
            {
              "year": 2022,
              "qualifications": [ 37, 41, 45, 51 ]
            }
          ]
        }
      ]
    },
    {
      "ukPrn": 10000952,
      "name": "BROOKSBY MELTON COLLEGE",
      "locations": [
        {
          "postcode": "LE67 3TN",
          "town": "COALVILLE",
          "latitude": 52.737048,
          "longitude": -1.372555,
          "website": "https://stephensoncoll.ac.uk/t-levels.php",
          "email": "services@stephensoncoll.ac.uk",
          "telephone": "01530 836136",
          "deliveryYears": [
            {
              "year": 2022,
              "qualifications": [ 36, 38, 41, 44 ]
            }
          ]
        }
      ]
    },
    {
      "ukPrn": 10042223,
      "name": "BURNTWOOD SCHOOL",
      "locations": [
        {
          "postcode": "SW17 0AQ",
          "town": "LONDON",
          "latitude": 51.438125,
          "longitude": -0.180083,
          "website": "https://www.burntwoodschool.com/",
          "email": "info@burntwoodschool.com",
          "telephone": "020 8946 6201",
          "deliveryYears": [
            {
              "year": 2022,
              "qualifications": [ 38 ]
            }
          ]
        }
      ]
    },
    {
      "ukPrn": 10001004,
      "name": "BURTON AND SOUTH DERBYSHIRE COLLEGE",
      "locations": [
        {
          "postcode": "DE14 3RL",
          "town": "BURTON-ON-TRENT",
          "latitude": 52.799693,
          "longitude": -1.631174,
          "website": "https://www.bsdc.ac.uk/student-life/t-levels",
          "email": "enquiries@bsdc.ac.uk",
          "telephone": "01283 494400",
          "deliveryYears": [
            {
              "year": 2022,
              "qualifications": [ 38, 50 ]
            }
          ]
        }
      ]
    },
    {
      "ukPrn": 10064832,
      "name": "CALLYWITH COLLEGE",
      "locations": [
        {
          "postcode": "PL31 2GT",
          "town": "BODMIN",
          "latitude": 50.476498,
          "longitude": -4.70616,
          "website": "https://www.callywith.ac.uk/what-to-study/further-education/t-levels",
          "email": "enquiry@callywith.ac.uk",
          "telephone": "01208 224000",
          "deliveryYears": [
            {
              "year": 2022,
              "qualifications": [ 37, 40, 41, 43, 51 ]
            }
          ]
        }
      ]
    },
    {
      "ukPrn": 10001353,
      "name": "CHELMSFORD COLLEGE",
      "locations": [
        {
          "postcode": "CM2 0JQ",
          "town": "CHELMSFORD",
          "latitude": 51.724995,
          "longitude": 0.466732,
          "website": "https://www.chelmsford.ac.uk/",
          "deliveryYears": [
            {
              "year": 2022,
              "qualifications": [ 36, 38 ]
            }
          ]
        }
      ]
    },
    {
      "ukPrn": 10057006,
      "name": "CREWE ENGINEERING AND DESIGN UTC",
      "locations": [
        {
          "postcode": "CW1 2PZ",
          "town": "CREWE",
          "latitude": 53.101111,
          "longitude": -2.442374,
          "website": "https://www.utccrewe.co.uk/",
          "email": "enquiries@creweutc.org.uk",
          "telephone": "01270 218150",
          "deliveryYears": [
            {
              "year": 2022,
              "qualifications": [ 48, 49, 50 ]
            }
          ]
        }
      ]
    },
    {
      "ukPrn": 10001778,
      "name": "CROYDON COLLEGE",
      "locations": [
        {
          "postcode": "CR9 1DX",
          "town": "CROYDON",
          "latitude": 51.373414,
          "longitude": -0.095181,
          "website": "https://croydon.ac.uk/t-levels/",
          "email": "info@croydon.ac.uk",
          "telephone": "020 8686 5700",
          "deliveryYears": [
            {
              "year": 2022,
              "qualifications": [ 43, 49 ]
            }
          ]
        }
      ]
    },
    {
      "ukPrn": 10001850,
      "name": "DARLINGTON COLLEGE",
      "locations": [
        {
          "postcode": "DL1 1DR",
          "town": "DARLINGTON",
          "latitude": 54.530122,
          "longitude": -1.5417,
          "website": "https://darlington.ac.uk/",
          "email": "enquire@darlington.ac.uk",
          "telephone": "01325 503030",
          "deliveryYears": [
            {
              "year": 2022,
              "qualifications": [ 38, 48, 49 ]
            }
          ]
        }
      ]
    },
    {
      "ukPrn": 10058995,
      "name": "DISS HIGH SCHOOL",
      "locations": [
        {
          "postcode": "IP22 4DH",
          "town": "DISS",
          "latitude": 52.379946,
          "longitude": 1.115074,
          "website": "https://www.disshigh.norfolk.sch.uk/",
          "deliveryYears": [
            {
              "year": 2022,
              "qualifications": [ 41 ]
            }
          ]
        }
      ]
    },
    {
      "ukPrn": 10004116,
      "name": "EAST COAST COLLEGE",
      "locations": [
        {
          "postcode": "NR31 0ED",
          "town": "GREAT YARMOUTH",
          "latitude": 52.597497,
          "longitude": 1.721459,
          "website": "https://www.eastcoast.ac.uk/t-levels/",
          "email": "heretohelp@eastcoast.ac.uk",
          "telephone": "01502 583521",
          "deliveryYears": [
            {
              "year": 2022,
              "qualifications": [ 36, 37, 38, 41, 42, 49 ]
            }
          ]
        }
      ]
    },
    {
      "ukPrn": 10002130,
      "name": "EAST SURREY COLLEGE",
      "locations": [
        {
          "postcode": "RH1 2JX",
          "town": "REDHILL",
          "latitude": 51.253587,
          "longitude": -0.162874,
          "website": "https://www.esc.ac.uk/full-time/tlevels",
          "email": "clientservices@esc.ac.uk",
          "telephone": "01737 788444",
          "deliveryYears": [
            {
              "year": 2022,
              "qualifications": [ 36, 37, 38, 39, 48 ]
            }
          ]
        }
      ]
    },
    {
      "ukPrn": 10002655,
      "name": "GENII ENGINEERING AND TECHNOLOGY TRAINING LIMITED",
      "locations": [
        {
          "postcode": "CA14 4JJ",
          "town": "WORKINGTON",
          "latitude": 54.613561,
          "longitude": -3.519154,
          "website": "https://www.gen2.ac.uk/",
          "email": "info@gen2.ac.uk",
          "telephone": "01900 701 300",
          "deliveryYears": [
            {
              "year": 2022,
              "qualifications": [ 48, 49, 50 ]
            }
          ]
        }
      ]
    },
    {
      "ukPrn": 10027983,
      "name": "GRACE ACADEMY DARLASTON",
      "locations": [
        {
          "postcode": "WS10 8QJ",
          "town": "WEDNESBURY",
          "latitude": 52.569974,
          "longitude": -2.050691,
          "website": "https://darlaston-graceacademy.org.uk/general/",
          "email": "darlaston@graceacademy.org.uk",
          "telephone": "0121 568 3300",
          "deliveryYears": [
            {
              "year": 2022,
              "qualifications": [ 37 ]
            }
          ]
        }
      ]
    },
    {
      "ukPrn": 10021076,
      "name": "HARRIS ACADEMY SOUTH NORWOOD",
      "locations": [
        {
          "postcode": "SE25 6AE",
          "town": "LONDON",
          "latitude": 51.40013,
          "longitude": -0.074717,
          "website": "https://www.harrissouthnorwood.org.uk/",
          "telephone": "020 8405 5070",
          "deliveryYears": [
            {
              "year": 2022,
              "qualifications": [ 41, 51 ]
            }
          ]
        }
      ]
    },
    {
      "ukPrn": 10036863,
      "name": "HELLESDON HIGH SCHOOL",
      "locations": [
        {
          "postcode": "NR6 5SB",
          "town": "NORWICH",
          "latitude": 52.660433,
          "longitude": 1.256367,
          "website": "https://www.wensumtrust.org.uk/hellesdonhigh/sixth-form",
          "telephone": "01603 424711",
          "deliveryYears": [
            {
              "year": 2022,
              "qualifications": [ 48 ]
            }
          ]
        }
      ]
    },
    {
      "ukPrn": 10037593,
      "name": "HESTON COMMUNITY SCHOOL",
      "locations": [
        {
          "postcode": "TW5 0QR",
          "town": "HOUNSLOW",
          "latitude": 51.483922,
          "longitude": -0.369411,
          "website": "https://www.hestoncommunityschool.co.uk/page/?title=T%2DLEVELS&pid=288",
          "email": "info@hestoncs.org",
          "telephone": "020 8572 1931",
          "deliveryYears": [
            {
              "year": 2022,
              "qualifications": [ 43, 51 ]
            }
          ]
        }
      ]
    },
    {
      "ukPrn": 10003855,
      "name": "LEEDS COLLEGE OF BUILDING",
      "locations": [
        {
          "postcode": "LS2 7QT",
          "town": "LEEDS",
          "latitude": 53.802946,
          "longitude": -1.535223,
          "website": "https://www.lcb.ac.uk/",
          "email": "info@lcb.ac.uk",
          "telephone": "0113 222 6000",
          "deliveryYears": [
            {
              "year": 2022,
              "qualifications": [ 36 ]
            }
          ]
        }
      ]
    },
    {
      "ukPrn": 10003899,
      "name": "LEYTON SIXTH FORM COLLEGE",
      "locations": [
        {
          "postcode": "E10 6EQ",
          "town": "LONDON",
          "latitude": 51.576066,
          "longitude": -0.002895,
          "website": "http://www.leyton.ac.uk/",
          "email": "enquiry@leyton.ac.uk",
          "telephone": "020 8928 9000",
          "deliveryYears": [
            {
              "year": 2022,
              "qualifications": [ 38 ]
            }
          ]
        }
      ]
    },
    {
      "ukPrn": 10003928,
      "name": "LINCOLN COLLEGE",
      "locations": [
        {
          "postcode": "LN2 5HQ",
          "town": "LINCOLN",
          "latitude": 53.231358,
          "longitude": -0.532657,
          "website": "https://www.lincolncollege.ac.uk/t-levels-explained/",
          "telephone": "01522 876000",
          "deliveryYears": [
            {
              "year": 2022,
              "qualifications": [ 38, 41 ]
            }
          ]
        }
      ]
    },
    {
      "ukPrn": 10047109,
      "name": "LINCOLN UTC",
      "locations": [
        {
          "postcode": "LN2 1PF",
          "town": "LINCOLN",
          "latitude": 53.232511,
          "longitude": -0.534609,
          "website": "http://www.lincolnutc.co.uk/news/t-level-launch",
          "email": "enquiries@lincolnutc.co.uk",
          "telephone": "01522 775990",
          "deliveryYears": [
            {
              "year": 2022,
              "qualifications": [ 50 ]
            }
          ]
        }
      ]
    },
    {
      "ukPrn": 10053993,
      "name": "MENDIP STUDIO SCHOOL",
      "locations": [
        {
          "postcode": "BA3 3NQ",
          "town": "RADSTOCK",
          "latitude": 51.287681,
          "longitude": -2.431703,
          "website": "https://www.mendipstudioschool.org.uk/",
          "telephone": "01761 438557",
          "deliveryYears": [
            {
              "year": 2022,
              "qualifications": [ 41, 43 ]
            }
          ]
        }
      ]
    },
    {
      "ukPrn": 10004718,
      "name": "NORTH WARWICKSHIRE AND SOUTH LEICESTERSHIRE COLLEG",
      "locations": [
        {
          "postcode": "CV11 6BH",
          "town": "NUNEATON",
          "latitude": 52.530296,
          "longitude": -1.449838,
          "website": "https://www.nwslc.ac.uk/t-levels/",
          "email": "enquiries@nwslc.ac.uk",
          "telephone": "0330 058 3000",
          "deliveryYears": [
            {
              "year": 2022,
              "qualifications": [ 37, 38, 39, 40, 41, 44, 48, 49, 50, 51 ]
            }
          ]
        }
      ]
    },
    {
      "ukPrn": 10007011,
      "name": "NORTHAMPTON COLLEGE",
      "locations": [
        {
          "postcode": "NN3 3RF",
          "town": "NORTHAMPTON",
          "latitude": 52.263024,
          "longitude": -0.849348,
          "website": "https://www.northamptoncollege.ac.uk/",
          "deliveryYears": [
            {
              "year": 2022,
              "qualifications": [ 38, 41 ]
            }
          ]
        }
      ]
    },
    {
      "ukPrn": 10031920,
      "name": "NORTON HILL ACADEMY",
      "locations": [
        {
          "postcode": "BA3 4AD",
          "town": "RADSTOCK",
          "latitude": 51.280627,
          "longitude": -2.479295,
          "website": "https://www.nortonhillschool.com/",
          "email": "enquiries@nortonhillschool.com",
          "deliveryYears": [
            {
              "year": 2022,
              "qualifications": [ 41, 42, 43, 51 ]
            }
          ]
        }
      ]
    },
    {
      "ukPrn": 10005158,
      "name": "PORTSMOUTH COLLEGE",
      "locations": [
        {
          "postcode": "PO3 6PZ",
          "town": "PORTSMOUTH",
          "latitude": 50.808561,
          "longitude": -1.045355,
          "website": "https://www.portsmouth-college.ac.uk/t-levels/",
          "email": "hello@portsmouth-college.ac.uk",
          "telephone": "023 9266 7521",
          "deliveryYears": [
            {
              "year": 2022,
              "qualifications": [ 41, 42 ]
            }
          ]
        }
      ]
    },
    {
      "ukPrn": 10065941,
      "name": "PRIOR PURSGLOVE AND STOCKTON SIXTH FORM COLLEGE",
      "locations": [
        {
          "postcode": "TS14 6BU",
          "town": "GUISBOROUGH",
          "latitude": 54.537441,
          "longitude": -1.048084,
          "website": "https://pursglove.ac.uk/",
          "telephone": "01287 280800",
          "deliveryYears": [
            {
              "year": 2022,
              "qualifications": [ 41 ]
            }
          ]
        }
      ]
    },
    {
      "ukPrn": 10005404,
      "name": "REASEHEATH COLLEGE",
      "locations": [
        {
          "postcode": "CW5 6DF",
          "town": "NANTWICH",
          "latitude": 53.083688,
          "longitude": -2.526845,
          "website": "https://www.reaseheath.ac.uk/further-education/t-levels/",
          "email": "enquiries@reaseheath.ac.uk",
          "telephone": "01270 613242",
          "deliveryYears": [
            {
              "year": 2022,
              "qualifications": [ 36, 44, 49, 51 ]
            }
          ]
        }
      ]
    },
    {
      "ukPrn": 10005967,
      "name": "SOUTH AND CITY COLLEGE BIRMINGHAM",
      "locations": [
        {
          "postcode": "B5 5SU",
          "town": "BIRMINGHAM",
          "latitude": 52.475457,
          "longitude": -1.885753,
          "website": "https://www.sccb.ac.uk/school-leavers/t-levels",
          "email": "hello@sccb.ac.uk",
          "telephone": "0121 694 5000",
          "deliveryYears": [
            {
              "year": 2022,
              "qualifications": [ 36, 37, 38, 40, 41, 42, 43, 44, 45, 48, 49, 50, 51 ]
            }
          ]
        }
      ]
    },
    {
      "ukPrn": 10036143,
      "name": "SOUTH GLOUCESTERSHIRE AND STROUD COLLEGE",
      "locations": [
        {
          "postcode": "BS34 7AT",
          "town": "BRISTOL",
          "latitude": 51.515125,
          "longitude": -2.571707,
          "website": "https://www.sgscol.ac.uk/study/t-levels",
          "telephone": "0800 0567 253",
          "deliveryYears": [
            {
              "year": 2022,
              "qualifications": [ 37, 38, 41 ]
            }
          ]
        }
      ]
    },
    {
      "ukPrn": 10006038,
      "name": "SOUTHPORT COLLEGE",
      "locations": [
        {
          "postcode": "PR9 0TT",
          "town": "SOUTHPORT",
          "latitude": 53.647816,
          "longitude": -2.997609,
          "website": "https://www.southport.ac.uk/",
          "telephone": "01704 500606",
          "deliveryYears": [
            {
              "year": 2022,
              "qualifications": [ 36, 38, 40 ]
            }
          ]
        }
      ]
    },
    {
      "ukPrn": 10006050,
      "name": "SPARSHOLT COLLEGE",
      "locations": [
        {
          "postcode": "SO21 2NF",
          "town": "WINCHESTER",
          "latitude": 51.08468,
          "longitude": -1.394883,
          "website": "https://www.sparsholt.ac.uk/",
          "deliveryYears": [
            {
              "year": 2022,
              "qualifications": [ 37, 41, 43, 44, 47 ]
            }
          ]
        }
      ]
    },
    {
      "ukPrn": 10008007,
      "name": "ST FRANCIS XAVIER SIXTH FORM COLLEGE",
      "locations": [
        {
          "postcode": "SW12 8EN",
          "town": "LONDON",
          "latitude": 51.45115,
          "longitude": -0.149284,
          "website": "https://www.sfx.ac.uk/",
          "telephone": "020 8772 6000",
          "deliveryYears": [
            {
              "year": 2022,
              "qualifications": [ 51 ]
            }
          ]
        }
      ]
    },
    {
      "ukPrn": 10006195,
      "name": "ST JOHN RIGBY RC SIXTH FORM COLLEGE",
      "locations": [
        {
          "postcode": "WN5 0LJ",
          "town": "WIGAN",
          "latitude": 53.554199,
          "longitude": -2.69858,
          "website": "https://sjr.ac.uk/t-levels/",
          "email": "enquiries@sjr.ac.uk",
          "telephone": "01942 214797",
          "deliveryYears": [
            {
              "year": 2022,
              "qualifications": [ 37, 41, 43, 51 ]
            }
          ]
        }
      ]
    },
    {
      "ukPrn": 10006494,
      "name": "TAMESIDE COLLEGE",
      "locations": [
        {
          "postcode": "OL6 6NX",
          "town": "ASHTON-UNDER-LYNE",
          "latitude": 53.487938,
          "longitude": -2.080771,
          "website": "https://www.tameside.ac.uk/",
          "telephone": "0161 908 6600",
          "deliveryYears": [
            {
              "year": 2022,
              "qualifications": [ 41 ]
            }
          ]
        }
      ]
    },
    {
      "ukPrn": 10006341,
      "name": "THE EDUCATION TRAINING COLLECTIVE",
      "locations": [
        {
          "postcode": "TS17 6FB",
          "town": "STOCKTON-ON-TEES",
          "latitude": 54.562248,
          "longitude": -1.299088,
          "website": "https://www.stockton.ac.uk/home",
          "email": "info@stockton.ac.uk",
          "telephone": "01642 865400",
          "deliveryYears": [
            {
              "year": 2022,
              "qualifications": [ 38, 41, 43, 45, 49, 50 ]
            }
          ]
        }
      ]
    },
    {
      "ukPrn": 10003011,
      "name": "THE HENLEY COLLEGE",
      "locations": [
        {
          "postcode": "RG9 1UH",
          "town": "HENLEY-ON-THAMES",
          "latitude": 51.536049,
          "longitude": -0.907967,
          "website": "https://www.henleycol.ac.uk/your-future-at-henley/t-levels/",
          "email": "info@henleycol.ac.uk",
          "telephone": "01491 579988",
          "deliveryYears": [
            {
              "year": 2022,
              "qualifications": [ 41 ]
            }
          ]
        }
      ]
    },
    {
      "ukPrn": 10030656,
      "name": "THE JCB ACADEMY",
      "locations": [
        {
          "postcode": "ST14 5JX",
          "town": "UTTOXTER",
          "latitude": 52.950664,
          "longitude": -1.837431,
          "website": "https://jcbacademy-tlevels.com/",
          "deliveryYears": [
            {
              "year": 2022,
              "qualifications": [ 48, 49, 50 ]
            }
          ]
        }
      ]
    },
    {
      "ukPrn": 10047244,
      "name": "UNIVERSITY TECHNICAL COLLEGE NORFOLK",
      "locations": [
        {
          "postcode": "NR4 6FF",
          "town": "NORWICH",
          "latitude": 52.599114,
          "longitude": 1.280158,
          "website": "https://utcn.org.uk/",
          "telephone": "01603 580280",
          "deliveryYears": [
            {
              "year": 2022,
              "qualifications": [ 48, 50 ]
            }
          ]
        }
      ]
    },
    {
      "ukPrn": 10057025,
      "name": "UTC SOUTH DURHAM",
      "locations": [
        {
          "postcode": "DL5 6AP",
          "town": "NEWTON AYCLIFFE",
          "latitude": 54.594354,
          "longitude": -1.579279,
          "website": "https://www.utcsouthdurham.org/",
          "email": "office@utcsouthdurham.org",
          "telephone": "01325 430 250",
          "deliveryYears": [
            {
              "year": 2022,
              "qualifications": [ 48, 50 ]
            }
          ]
        }
      ]
    },
    {
      "ukPrn": 10015885,
      "name": "WALSALL ACADEMY",
      "locations": [
        {
          "postcode": "WS3 3LX",
          "town": "WALSALL",
          "latitude": 52.623575,
          "longitude": -1.998775,
          "website": "https://walsallacademy.com/",
          "telephone": "01922 493910",
          "deliveryYears": [
            {
              "year": 2022,
              "qualifications": [ 37, 41, 43, 51 ]
            }
          ]
        }
      ]
    },
    {
      "ukPrn": 10007417,
      "name": "WEST HERTS COLLEGE",
      "locations": [
        {
          "postcode": "WD17 3EZ",
          "town": "WATFORD",
          "latitude": 51.660054,
          "longitude": -0.406211,
          "website": "https://www.westherts.ac.uk/",
          "telephone": "01923 812345",
          "deliveryYears": [
            {
              "year": 2022,
              "qualifications": [ 38 ]
            }
          ]
        }
      ]
    },
    {
      "ukPrn": 10007527,
      "name": "WILTSHIRE COLLEGE AND UNIVERSITY CENTRE",
      "locations": [
        {
          "postcode": "SN15 3QD",
          "town": "CHIPPENHAM",
          "latitude": 51.463002,
          "longitude": -2.110726,
          "website": "https://www.wiltshire.ac.uk/",
          "email": "info@wiltshire.ac.uk",
          "telephone": "01225 350035",
          "deliveryYears": [
            {
              "year": 2022,
              "qualifications": [ 37, 38, 43, 48, 49, 51 ]
            }
          ]
        }
      ]
    },
    {
      "ukPrn": 10007553,
      "name": "WIRRAL METROPOLITAN COLLEGE",
      "locations": [
        {
          "postcode": "CH41 4NT",
          "town": "BIRKENHEAD",
          "latitude": 53.393088,
          "longitude": -3.021491,
          "website": "https://www.wmc.ac.uk/",
          "telephone": "0151 551 7777",
          "deliveryYears": [
            {
              "year": 2022,
              "qualifications": [ 38, 40, 44 ]
            }
          ]
        }
      ]
    }
  ]
}
